[{"_id":"43805","address":"708 Lott Avenue, Gloucester, Virgin Islands, 5043","phone":"+1 (881) 541-3943","name":"Musanpoly","tennantId":"13855","state":"Nebraska","latitude":"-61.866094","longitude":"-29.87921"},{"_id":"05137","address":"124 Pine Street, Campo, Montana, 7782","phone":"+1 (850) 571-2954","name":"Zork","tennantId":"13855","state":"Guam","latitude":"-66.959054","longitude":"88.754213"},{"_id":"38633","address":"346 Madoc Avenue, Matheny, Massachusetts, 4235","phone":"+1 (917) 489-3104","name":"Earthpure","tennantId":"13855","state":"Utah","latitude":"56.404176","longitude":"-135.834884"},{"_id":"14081","address":"603 Horace Court, Sidman, Oregon, 1623","phone":"+1 (983) 576-2212","name":"Infotrips","tennantId":"13855","state":"Oklahoma","latitude":"-7.223416","longitude":"-78.459811"},{"_id":"31251","address":"231 Abbey Court, Dowling, Maine, 5511","phone":"+1 (863) 497-2008","name":"Sunclipse","tennantId":"13855","state":"Delaware","latitude":"63.986943","longitude":"37.831758"},{"_id":"86381","address":"911 Gelston Avenue, Ernstville, New Mexico, 3131","phone":"+1 (900) 475-2326","name":"Cowtown","tennantId":"13855","state":"Michigan","latitude":"43.04499","longitude":"-22.942848"},{"_id":"14638","address":"786 Crown Street, Dixonville, Federated States Of Micronesia, 764","phone":"+1 (812) 519-3658","name":"Emtrak","tennantId":"13855","state":"Arizona","latitude":"10.064787","longitude":"110.756369"},{"_id":"26874","address":"577 Mill Street, Bentonville, Vermont, 4932","phone":"+1 (998) 595-2522","name":"Eclipsent","tennantId":"13855","state":"Puerto Rico","latitude":"-8.131505","longitude":"-149.080081"},{"_id":"92435","address":"147 Conover Street, Goochland, North Carolina, 9831","phone":"+1 (945) 431-3185","name":"Techade","tennantId":"13855","state":"Wyoming","latitude":"52.206818","longitude":"-118.502638"},{"_id":"26717","address":"600 Hastings Street, Henrietta, Connecticut, 7856","phone":"+1 (844) 574-2947","name":"Ewaves","tennantId":"54116","state":"Florida","latitude":"46.444227","longitude":"-143.074736"},{"_id":"79173","address":"478 Cranberry Street, Basye, Ohio, 3539","phone":"+1 (867) 465-2282","name":"Pasturia","tennantId":"54116","state":"Virginia","latitude":"-63.20987","longitude":"153.989029"},{"_id":"00095","address":"496 Virginia Place, Finderne, New York, 5940","phone":"+1 (895) 460-3002","name":"Wrapture","tennantId":"54116","state":"Minnesota","latitude":"-60.474383","longitude":"59.657525"},{"_id":"68989","address":"570 Schenck Street, Ticonderoga, Colorado, 9791","phone":"+1 (848) 460-3578","name":"Lunchpod","tennantId":"54116","state":"Maryland","latitude":"-18.926167","longitude":"21.043268"},{"_id":"53823","address":"110 Reeve Place, Foscoe, Illinois, 6058","phone":"+1 (980) 547-2587","name":"Bugsall","tennantId":"54116","state":"Idaho","latitude":"-12.642756","longitude":"-160.029553"},{"_id":"96079","address":"165 Legion Street, Fontanelle, Washington, 1853","phone":"+1 (986) 443-3574","name":"Zialactic","tennantId":"29955","state":"New Jersey","latitude":"-45.532534","longitude":"55.056417"},{"_id":"22463","address":"946 Jerome Avenue, Levant, Marshall Islands, 6508","phone":"+1 (947) 504-2264","name":"Xyqag","tennantId":"29955","state":"Northern Mariana Islands","latitude":"-35.551431","longitude":"-15.741141"},{"_id":"11200","address":"563 Rochester Avenue, Winston, New Hampshire, 5496","phone":"+1 (873) 478-3061","name":"Adornica","tennantId":"29955","state":"North Dakota","latitude":"-14.250928","longitude":"159.479292"},{"_id":"91923","address":"313 Ryder Avenue, Rote, Mississippi, 1233","phone":"+1 (894) 482-2638","name":"Strozen","tennantId":"29955","state":"California","latitude":"-35.81421","longitude":"5.052144"},{"_id":"34599","address":"968 Bergen Court, Longbranch, Hawaii, 4977","phone":"+1 (801) 422-3450","name":"Exospeed","tennantId":"29955","state":"District Of Columbia","latitude":"63.181656","longitude":"140.578284"},{"_id":"38803","address":"303 Driggs Avenue, Orick, Iowa, 5665","phone":"+1 (840) 569-3113","name":"Gink","tennantId":"29955","state":"Georgia","latitude":"30.13557","longitude":"-101.987005"},{"_id":"89408","address":"663 Jamison Lane, Mapletown, Rhode Island, 1277","phone":"+1 (820) 502-3081","name":"Talkola","tennantId":"29955","state":"West Virginia","latitude":"-45.95265","longitude":"86.59907"},{"_id":"23806","address":"922 Lexington Avenue, Nadine, Alaska, 5211","phone":"+1 (922) 565-3994","name":"Sulfax","tennantId":"29955","state":"South Dakota","latitude":"-32.476116","longitude":"114.85609"},{"_id":"42580","address":"625 Herzl Street, Gordon, Virgin Islands, 2030","phone":"+1 (889) 519-2664","name":"Portalis","tennantId":"29955","state":"Nebraska","latitude":"-9.541779","longitude":"169.015243"},{"_id":"79907","address":"873 Falmouth Street, Franklin, Guam, 1763","phone":"+1 (894) 597-2439","name":"Temorak","tennantId":"72673","state":"Maine","latitude":"-28.350485","longitude":"-170.455415"},{"_id":"48194","address":"444 Baughman Place, Croom, Utah, 6442","phone":"+1 (856) 424-2234","name":"Paragonia","tennantId":"72673","state":"New Mexico","latitude":"-84.075958","longitude":"1.417913"},{"_id":"94125","address":"824 Bay Parkway, Rivereno, Oklahoma, 9936","phone":"+1 (888) 466-3869","name":"Dentrex","tennantId":"72673","state":"Federated States Of Micronesia","latitude":"-60.230492","longitude":"127.057262"},{"_id":"51147","address":"854 Seigel Court, Fostoria, Delaware, 9559","phone":"+1 (858) 432-3912","name":"Comtest","tennantId":"72673","state":"Vermont","latitude":"-26.347873","longitude":"88.172348"},{"_id":"06638","address":"235 India Street, Wakarusa, Michigan, 4412","phone":"+1 (810) 480-3091","name":"Furnigeer","tennantId":"72673","state":"North Carolina","latitude":"67.732693","longitude":"64.560234"},{"_id":"57051","address":"138 Elmwood Avenue, Catharine, Arizona, 1485","phone":"+1 (867) 587-2370","name":"Accupharm","tennantId":"72673","state":"Indiana","latitude":"73.039306","longitude":"-80.083819"},{"_id":"17899","address":"535 Lyme Avenue, Leming, Puerto Rico, 2418","phone":"+1 (885) 497-3317","name":"Quadeebo","tennantId":"72673","state":"American Samoa","latitude":"28.501558","longitude":"50.859489"},{"_id":"70764","address":"386 Ridgewood Avenue, Bagtown, Virginia, 638","phone":"+1 (959) 581-3656","name":"Centice","tennantId":"95100","state":"Illinois","latitude":"52.410834","longitude":"-106.42514"},{"_id":"37170","address":"914 Paerdegat Avenue, Biehle, Minnesota, 3157","phone":"+1 (992) 600-3867","name":"Sonique","tennantId":"95100","state":"Louisiana","latitude":"77.366998","longitude":"140.312314"},{"_id":"94825","address":"787 Duryea Place, Glenville, Maryland, 1692","phone":"+1 (847) 486-2752","name":"Plasmox","tennantId":"95100","state":"Alabama","latitude":"-34.789446","longitude":"-77.09027"},{"_id":"49151","address":"470 Bond Street, Spokane, Idaho, 9090","phone":"+1 (951) 584-3481","name":"Insurity","tennantId":"95100","state":"Texas","latitude":"-59.484017","longitude":"173.700666"},{"_id":"43311","address":"390 Dakota Place, Cavalero, South Carolina, 9243","phone":"+1 (887) 597-2856","name":"Columella","tennantId":"95100","state":"Wisconsin","latitude":"76.181026","longitude":"116.03477"},{"_id":"74000","address":"598 Williamsburg Street, Chemung, Kansas, 5606","phone":"+1 (998) 554-2770","name":"Grainspot","tennantId":"95100","state":"Arkansas","latitude":"-55.849789","longitude":"-52.800545"},{"_id":"63598","address":"685 Barwell Terrace, Grantville, Palau, 9660","phone":"+1 (871) 471-3949","name":"Bluplanet","tennantId":"95100","state":"Tennessee","latitude":"21.528748","longitude":"124.667617"},{"_id":"33299","address":"334 Tapscott Street, Ronco, Missouri, 9913","phone":"+1 (924) 427-3903","name":"Handshake","tennantId":"95100","state":"Kentucky","latitude":"-31.036318","longitude":"-30.154359"},{"_id":"02547","address":"695 Hewes Street, Manitou, Washington, 1467","phone":"+1 (943) 427-3944","name":"Zytrac","tennantId":"95100","state":"New Jersey","latitude":"20.316844","longitude":"-99.283799"},{"_id":"38733","address":"416 Grove Place, Brandywine, Northern Mariana Islands, 389","phone":"+1 (926) 504-3397","name":"Micronaut","tennantId":"33448","state":"Hawaii","latitude":"72.050326","longitude":"150.922821"},{"_id":"43810","address":"242 Dunham Place, Katonah, North Dakota, 1464","phone":"+1 (921) 539-2834","name":"Petigems","tennantId":"33448","state":"Iowa","latitude":"-51.504052","longitude":"45.084791"},{"_id":"24063","address":"443 Essex Street, Masthope, California, 9695","phone":"+1 (913) 584-3594","name":"Deepends","tennantId":"33448","state":"Rhode Island","latitude":"5.45637","longitude":"78.442085"},{"_id":"29758","address":"338 Willoughby Avenue, Fidelis, District Of Columbia, 8491","phone":"+1 (986) 422-3105","name":"Netropic","tennantId":"33448","state":"Alaska","latitude":"35.680901","longitude":"165.614872"},{"_id":"15590","address":"972 Stuart Street, Mulino, Georgia, 7723","phone":"+1 (833) 424-2681","name":"Zentix","tennantId":"33448","state":"Virgin Islands","latitude":"87.211725","longitude":"-109.304901"},{"_id":"53518","address":"230 Herkimer Place, Northridge, West Virginia, 3662","phone":"+1 (973) 424-2452","name":"Bovis","tennantId":"33448","state":"Montana","latitude":"-78.992773","longitude":"-97.69418"},{"_id":"45735","address":"547 Prospect Avenue, Williamson, South Dakota, 2127","phone":"+1 (920) 467-2940","name":"Helixo","tennantId":"33448","state":"Massachusetts","latitude":"-78.361813","longitude":"-52.80001"},{"_id":"87374","address":"238 Veronica Place, Sardis, New Mexico, 1262","phone":"+1 (855) 505-3163","name":"Kineticut","tennantId":"71448","state":"Michigan","latitude":"-1.816706","longitude":"-25.335458"},{"_id":"65717","address":"784 Sullivan Place, Norris, Federated States Of Micronesia, 3679","phone":"+1 (828) 456-2931","name":"Bluegrain","tennantId":"71448","state":"Arizona","latitude":"-34.025897","longitude":"158.532927"},{"_id":"64933","address":"991 Llama Court, Winesburg, Vermont, 2404","phone":"+1 (995) 562-3720","name":"Kindaloo","tennantId":"71448","state":"Puerto Rico","latitude":"-25.441925","longitude":"-151.602177"},{"_id":"60100","address":"414 Martense Street, Villarreal, North Carolina, 1802","phone":"+1 (832) 596-2419","name":"Tetak","tennantId":"71448","state":"Wyoming","latitude":"-20.397649","longitude":"57.297697"},{"_id":"45747","address":"442 Bayview Avenue, Clinton, Indiana, 7198","phone":"+1 (905) 579-3598","name":"Zaj","tennantId":"71448","state":"Connecticut","latitude":"-14.533904","longitude":"140.595166"},{"_id":"79742","address":"210 Radde Place, Belvoir, American Samoa, 9400","phone":"+1 (894) 459-3189","name":"Cosmosis","tennantId":"71448","state":"Ohio","latitude":"-68.233908","longitude":"125.342635"},{"_id":"41012","address":"109 Polhemus Place, Ogema, Pennsylvania, 3798","phone":"+1 (896) 561-3357","name":"Phormula","tennantId":"71448","state":"New York","latitude":"-88.666057","longitude":"109.342628"},{"_id":"14730","address":"849 Clark Street, Clay, Louisiana, 1487","phone":"+1 (904) 559-3378","name":"Comstruct","tennantId":"54237","state":"South Carolina","latitude":"26.377707","longitude":"-107.633095"},{"_id":"37167","address":"502 Evergreen Avenue, Gorst, Alabama, 5197","phone":"+1 (963) 561-2591","name":"Shopabout","tennantId":"54237","state":"Kansas","latitude":"75.72204","longitude":"-82.138477"},{"_id":"34949","address":"813 Beverley Road, Lithium, Texas, 4010","phone":"+1 (939) 539-3287","name":"Zolarity","tennantId":"54237","state":"Palau","latitude":"24.200897","longitude":"170.907119"},{"_id":"98661","address":"689 Logan Street, Toftrees, Wisconsin, 4737","phone":"+1 (826) 530-2671","name":"Centuria","tennantId":"54237","state":"Missouri","latitude":"-85.08491","longitude":"160.05936"},{"_id":"83011","address":"524 Williams Place, Lawrence, Arkansas, 2302","phone":"+1 (883) 579-2724","name":"Biotica","tennantId":"54237","state":"Washington","latitude":"-88.434687","longitude":"-0.498406"},{"_id":"93332","address":"534 Jay Street, Bowden, Tennessee, 2689","phone":"+1 (917) 577-3007","name":"Accruex","tennantId":"54237","state":"Marshall Islands","latitude":"-69.231759","longitude":"53.926544"},{"_id":"45723","address":"386 Noel Avenue, Glasgow, Iowa, 3514","phone":"+1 (813) 435-3813","name":"Injoy","tennantId":"15003","state":"Georgia","latitude":"-12.168632","longitude":"4.93402"},{"_id":"67426","address":"969 Adelphi Street, Bartley, Rhode Island, 8744","phone":"+1 (978) 408-3474","name":"Typhonica","tennantId":"15003","state":"West Virginia","latitude":"-37.817545","longitude":"-53.926588"},{"_id":"34518","address":"849 Portland Avenue, Nescatunga, Alaska, 6967","phone":"+1 (865) 580-2993","name":"Lyria","tennantId":"15003","state":"South Dakota","latitude":"-21.53241","longitude":"15.651852"},{"_id":"37393","address":"353 Albemarle Terrace, Dennard, Virgin Islands, 8824","phone":"+1 (898) 548-3224","name":"Unisure","tennantId":"15003","state":"Nebraska","latitude":"-62.80663","longitude":"-63.130575"},{"_id":"27124","address":"337 Liberty Avenue, Bowie, Montana, 3172","phone":"+1 (943) 547-3891","name":"Songlines","tennantId":"15003","state":"Guam","latitude":"-62.058593","longitude":"40.355294"},{"_id":"75526","address":"564 Evans Street, Gambrills, Massachusetts, 7024","phone":"+1 (923) 590-2803","name":"Quintity","tennantId":"15003","state":"Utah","latitude":"-79.305039","longitude":"174.311683"},{"_id":"80091","address":"868 Bridge Street, Bennett, Oregon, 8576","phone":"+1 (961) 484-3692","name":"Soprano","tennantId":"15003","state":"Oklahoma","latitude":"-33.962638","longitude":"-56.371656"},{"_id":"34434","address":"937 Louisiana Avenue, Matthews, Arizona, 2874","phone":"+1 (898) 535-3864","name":"Glukgluk","tennantId":"82392","state":"Indiana","latitude":"81.433168","longitude":"141.001286"},{"_id":"31263","address":"687 Berriman Street, Staples, Puerto Rico, 6859","phone":"+1 (989) 424-2468","name":"Sealoud","tennantId":"82392","state":"American Samoa","latitude":"54.680191","longitude":"-175.413846"},{"_id":"26523","address":"626 Brightwater Avenue, Waverly, Wyoming, 5556","phone":"+1 (891) 590-3351","name":"Geekular","tennantId":"82392","state":"Pennsylvania","latitude":"-79.300317","longitude":"-166.187075"},{"_id":"76216","address":"146 Ross Street, Lewis, Connecticut, 7474","phone":"+1 (913) 424-2699","name":"Maxemia","tennantId":"82392","state":"Florida","latitude":"30.811764","longitude":"114.795921"},{"_id":"53478","address":"152 Joralemon Street, Hardyville, Ohio, 8861","phone":"+1 (977) 520-3289","name":"Centree","tennantId":"82392","state":"Virginia","latitude":"-73.685459","longitude":"-7.51797"},{"_id":"17442","address":"637 Varanda Place, Madaket, New York, 8341","phone":"+1 (817) 527-2081","name":"Remotion","tennantId":"82392","state":"Minnesota","latitude":"-52.518105","longitude":"-130.250333"}]