[
  {
    "_id": "78632",
    "isActive": true,
    "logo": "images/0.jpg",
    "picture": "https://placeholder.com/wp-content/uploads/2018/10/placeholder.com-logo3.jpg",
    "name": "CORPULSE",
    "phone": "+1 (936) 515-3622",
    "address": "659 Monroe Street, Gardiner, Georgia, 9014",
    "email": "corpulse@corpulse.com",
    "properties": [
      {
        "_id": "12339",
        "address": "708 Lott Avenue, Gloucester, Virgin Islands, 5043",
        "phone": "+1 (881) 541-3943",
        "name": "Musanpoly",
        "tennantId": "78632",
        "state": "Nebraska",
        "latitude": "-61.866094",
        "longitude": "-29.87921",
        "buildings": [
          {
            "_id": "60350",
            "address": "979 George Street, Blue, Oregon, 5915",
            "phone": "+1 (956) 542-2281",
            "name": "Gazak",
            "propertyId": "12339",
            "state": "Oklahoma",
            "latitude": "-68.271753",
            "longitude": "-171.139926"
          },
          {
            "_id": "25522",
            "address": "349 Humboldt Street, Shindler, Federated States Of Micronesia, 6526",
            "phone": "+1 (970) 507-3031",
            "name": "Bitrex",
            "propertyId": "12339",
            "state": "Arizona",
            "latitude": "71.548086",
            "longitude": "27.668058"
          },
          {
            "_id": "12118",
            "address": "635 Clinton Street, Bakersville, Indiana, 8822",
            "phone": "+1 (988) 557-2188",
            "name": "Renovize",
            "propertyId": "12339",
            "state": "Connecticut",
            "latitude": "-60.778201",
            "longitude": "-77.690841"
          },
          {
            "_id": "45366",
            "address": "881 Perry Terrace, Whitestone, Florida, 1366",
            "phone": "+1 (927) 545-3640",
            "name": "Rodeology",
            "propertyId": "12339",
            "state": "Colorado",
            "latitude": "-60.527895",
            "longitude": "-31.215221"
          },
          {
            "_id": "66963",
            "address": "978 Belmont Avenue, Rodanthe, Maryland, 3686",
            "phone": "+1 (874) 417-2098",
            "name": "Stelaecor",
            "propertyId": "12339",
            "state": "Alabama",
            "latitude": "-44.514286",
            "longitude": "176.250734"
          },
          {
            "_id": "42718",
            "address": "100 Division Place, Bordelonville, Kansas, 6416",
            "phone": "+1 (828) 539-2342",
            "name": "Plasmos",
            "propertyId": "12339",
            "state": "Arkansas",
            "latitude": "-53.293973",
            "longitude": "-129.55102"
          },
          {
            "_id": "65185",
            "address": "368 Macon Street, Summerset, Washington, 8104",
            "phone": "+1 (829) 454-2520",
            "name": "Pyramis",
            "propertyId": "12339",
            "state": "New Jersey",
            "latitude": "-79.341571",
            "longitude": "-82.718029"
          },
          {
            "_id": "54062",
            "address": "624 Hull Street, Cotopaxi, Mississippi, 471",
            "phone": "+1 (837) 534-2048",
            "name": "Elemantra",
            "propertyId": "12339",
            "state": "California",
            "latitude": "-60.881013",
            "longitude": "26.376234"
          }
        ]
      },
      {
        "_id": "56176",
        "address": "124 Pine Street, Campo, Montana, 7782",
        "phone": "+1 (850) 571-2954",
        "name": "Zork",
        "tennantId": "78632",
        "state": "Guam",
        "latitude": "-66.959054",
        "longitude": "88.754213",
        "buildings": [
          {
            "_id": "94892",
            "address": "277 Bills Place, Holtville, Maine, 8906",
            "phone": "+1 (803) 478-2806",
            "name": "Zytrex",
            "propertyId": "56176",
            "state": "Delaware",
            "latitude": "67.819552",
            "longitude": "130.453322"
          },
          {
            "_id": "13313",
            "address": "341 Croton Loop, Harold, Vermont, 9181",
            "phone": "+1 (848) 462-2078",
            "name": "Gynko",
            "propertyId": "56176",
            "state": "Puerto Rico",
            "latitude": "60.506486",
            "longitude": "-82.64626"
          },
          {
            "_id": "01014",
            "address": "829 Chester Street, Woodlake, American Samoa, 3221",
            "phone": "+1 (828) 548-3490",
            "name": "Fortean",
            "propertyId": "56176",
            "state": "Ohio",
            "latitude": "32.670937",
            "longitude": "167.324443"
          },
          {
            "_id": "59259",
            "address": "226 Taaffe Place, Brethren, Virginia, 3779",
            "phone": "+1 (914) 597-2806",
            "name": "Rodeocean",
            "propertyId": "56176",
            "state": "Illinois",
            "latitude": "54.980683",
            "longitude": "-157.325529"
          },
          {
            "_id": "72725",
            "address": "614 Lacon Court, Knowlton, Idaho, 4364",
            "phone": "+1 (892) 479-2710",
            "name": "Cujo",
            "propertyId": "56176",
            "state": "Texas",
            "latitude": "0.332917",
            "longitude": "-91.486206"
          }
        ]
      },
      {
        "_id": "20222",
        "address": "346 Madoc Avenue, Matheny, Massachusetts, 4235",
        "phone": "+1 (917) 489-3104",
        "name": "Earthpure",
        "tennantId": "78632",
        "state": "Utah",
        "latitude": "56.404176",
        "longitude": "-135.834884",
        "buildings": [
          {
            "_id": "19044",
            "address": "538 Suydam Place, Brandermill, New Mexico, 4479",
            "phone": "+1 (965) 461-2046",
            "name": "Fangold",
            "propertyId": "20222",
            "state": "Michigan",
            "latitude": "-36.308586",
            "longitude": "122.517344"
          },
          {
            "_id": "91005",
            "address": "817 Kenmore Court, Leola, North Carolina, 768",
            "phone": "+1 (912) 535-3782",
            "name": "Cincyr",
            "propertyId": "20222",
            "state": "Wyoming",
            "latitude": "-84.561891",
            "longitude": "80.032571"
          },
          {
            "_id": "54938",
            "address": "786 Ivan Court, Edenburg, Pennsylvania, 6914",
            "phone": "+1 (979) 534-2129",
            "name": "Kongene",
            "propertyId": "20222",
            "state": "New York",
            "latitude": "87.498261",
            "longitude": "-153.117214"
          },
          {
            "_id": "21821",
            "address": "623 Cropsey Avenue, Detroit, Minnesota, 8429",
            "phone": "+1 (966) 493-3843",
            "name": "Telequiet",
            "propertyId": "20222",
            "state": "Louisiana",
            "latitude": "-64.081045",
            "longitude": "-1.704211"
          },
          {
            "_id": "67973",
            "address": "843 Elliott Place, Lisco, South Carolina, 2508",
            "phone": "+1 (824) 508-3415",
            "name": "Songbird",
            "propertyId": "20222",
            "state": "Wisconsin",
            "latitude": "-34.219938",
            "longitude": "170.465481"
          },
          {
            "_id": "43610",
            "address": "645 Wilson Avenue, Herlong, Missouri, 9140",
            "phone": "+1 (831) 581-2754",
            "name": "Golistic",
            "propertyId": "20222",
            "state": "Kentucky",
            "latitude": "-77.069009",
            "longitude": "-167.55458"
          }
        ]
      },
      {
        "_id": "11652",
        "address": "603 Horace Court, Sidman, Oregon, 1623",
        "phone": "+1 (983) 576-2212",
        "name": "Infotrips",
        "tennantId": "78632",
        "state": "Oklahoma",
        "latitude": "-7.223416",
        "longitude": "-78.459811",
        "buildings": [
          {
            "_id": "08209",
            "address": "486 McKinley Avenue, Linganore, Federated States Of Micronesia, 3818",
            "phone": "+1 (985) 551-2976",
            "name": "Digial",
            "propertyId": "11652",
            "state": "Arizona",
            "latitude": "1.170198",
            "longitude": "110.359165"
          },
          {
            "_id": "81848",
            "address": "879 Colonial Court, Hoagland, Indiana, 1548",
            "phone": "+1 (909) 455-2490",
            "name": "Retrotex",
            "propertyId": "11652",
            "state": "Connecticut",
            "latitude": "23.918702",
            "longitude": "16.276833"
          },
          {
            "_id": "83967",
            "address": "132 Alabama Avenue, Lopezo, Florida, 2758",
            "phone": "+1 (997) 506-2228",
            "name": "Envire",
            "propertyId": "11652",
            "state": "Colorado",
            "latitude": "42.991336",
            "longitude": "-104.381472"
          },
          {
            "_id": "79408",
            "address": "987 Orient Avenue, Wanship, Maryland, 2587",
            "phone": "+1 (961) 586-2758",
            "name": "Xiix",
            "propertyId": "11652",
            "state": "Alabama",
            "latitude": "-71.240095",
            "longitude": "-0.456298"
          },
          {
            "_id": "06169",
            "address": "975 Christopher Avenue, Wilsonia, Kansas, 3783",
            "phone": "+1 (970) 474-2507",
            "name": "Kidstock",
            "propertyId": "11652",
            "state": "Arkansas",
            "latitude": "-36.717856",
            "longitude": "-45.544522"
          },
          {
            "_id": "64031",
            "address": "930 Lois Avenue, Malo, Washington, 2171",
            "phone": "+1 (938) 424-3431",
            "name": "Moltonic",
            "propertyId": "11652",
            "state": "New Jersey",
            "latitude": "81.901593",
            "longitude": "-142.607215"
          }
        ]
      },
      {
        "_id": "16289",
        "address": "231 Abbey Court, Dowling, Maine, 5511",
        "phone": "+1 (863) 497-2008",
        "name": "Sunclipse",
        "tennantId": "78632",
        "state": "Delaware",
        "latitude": "63.986943",
        "longitude": "37.831758",
        "buildings": [
          {
            "_id": "75631",
            "address": "433 Mermaid Avenue, Deltaville, Vermont, 7818",
            "phone": "+1 (874) 496-2749",
            "name": "Flum",
            "propertyId": "16289",
            "state": "Puerto Rico",
            "latitude": "36.43123",
            "longitude": "-177.75663"
          },
          {
            "_id": "95359",
            "address": "485 Lott Street, Crown, American Samoa, 1346",
            "phone": "+1 (968) 549-3918",
            "name": "Bittor",
            "propertyId": "16289",
            "state": "Ohio",
            "latitude": "18.89823",
            "longitude": "-102.156765"
          },
          {
            "_id": "73577",
            "address": "723 Whitty Lane, Carlos, Virginia, 2444",
            "phone": "+1 (860) 594-2840",
            "name": "Ginkle",
            "propertyId": "16289",
            "state": "Illinois",
            "latitude": "-81.334597",
            "longitude": "76.591127"
          },
          {
            "_id": "02510",
            "address": "777 Arion Place, Thatcher, Idaho, 7024",
            "phone": "+1 (924) 514-2966",
            "name": "Tri@Tribalog",
            "propertyId": "16289",
            "state": "Texas",
            "latitude": "13.311416",
            "longitude": "-157.464873"
          },
          {
            "_id": "35123",
            "address": "674 Lorimer Street, Edmund, Palau, 3239",
            "phone": "+1 (890) 545-2323",
            "name": "Providco",
            "propertyId": "16289",
            "state": "Tennessee",
            "latitude": "-50.086353",
            "longitude": "-14.597119"
          },
          {
            "_id": "52057",
            "address": "851 Bijou Avenue, Motley, Marshall Islands, 5933",
            "phone": "+1 (819) 543-3084",
            "name": "Tourmania",
            "propertyId": "16289",
            "state": "Northern Mariana Islands",
            "latitude": "-25.015286",
            "longitude": "75.257923"
          },
          {
            "_id": "57735",
            "address": "724 Columbus Place, Ribera, Hawaii, 5267",
            "phone": "+1 (950) 410-3970",
            "name": "Sultraxin",
            "propertyId": "16289",
            "state": "District Of Columbia",
            "latitude": "-76.332572",
            "longitude": "49.623042"
          },
          {
            "_id": "92208",
            "address": "788 Branton Street, Gulf, Alaska, 2352",
            "phone": "+1 (804) 575-2774",
            "name": "Enaut",
            "propertyId": "16289",
            "state": "South Dakota",
            "latitude": "-37.353783",
            "longitude": "-84.802461"
          }
        ]
      },
      {
        "_id": "36430",
        "address": "911 Gelston Avenue, Ernstville, New Mexico, 3131",
        "phone": "+1 (900) 475-2326",
        "name": "Cowtown",
        "tennantId": "78632",
        "state": "Michigan",
        "latitude": "43.04499",
        "longitude": "-22.942848",
        "buildings": [
          {
            "_id": "77006",
            "address": "329 Harkness Avenue, Kimmell, North Carolina, 5840",
            "phone": "+1 (968) 438-3125",
            "name": "Gorganic",
            "propertyId": "36430",
            "state": "Wyoming",
            "latitude": "-68.672084",
            "longitude": "157.343633"
          },
          {
            "_id": "30174",
            "address": "700 Cypress Court, Goodville, Pennsylvania, 3050",
            "phone": "+1 (841) 593-3032",
            "name": "Gaptec",
            "propertyId": "36430",
            "state": "New York",
            "latitude": "2.946988",
            "longitude": "-158.565729"
          },
          {
            "_id": "61804",
            "address": "748 Jewel Street, Gerber, Minnesota, 6460",
            "phone": "+1 (833) 510-3392",
            "name": "Ramjob",
            "propertyId": "36430",
            "state": "Louisiana",
            "latitude": "-57.579874",
            "longitude": "34.622002"
          },
          {
            "_id": "77592",
            "address": "489 Bayview Place, Oley, South Carolina, 1656",
            "phone": "+1 (863) 555-3346",
            "name": "Shepard",
            "propertyId": "36430",
            "state": "Wisconsin",
            "latitude": "-6.615613",
            "longitude": "-119.872506"
          },
          {
            "_id": "00486",
            "address": "527 Dwight Street, Sterling, Missouri, 6350",
            "phone": "+1 (970) 580-2357",
            "name": "Rocklogic",
            "propertyId": "36430",
            "state": "Kentucky",
            "latitude": "18.397448",
            "longitude": "38.973127"
          },
          {
            "_id": "44654",
            "address": "450 Roosevelt Court, Gilmore, New Hampshire, 9941",
            "phone": "+1 (807) 400-2057",
            "name": "Isoswitch",
            "propertyId": "36430",
            "state": "North Dakota",
            "latitude": "-2.158207",
            "longitude": "-159.52695"
          },
          {
            "_id": "55096",
            "address": "435 Gunnison Court, Wolcott, Iowa, 1276",
            "phone": "+1 (818) 492-3224",
            "name": "Keengen",
            "propertyId": "36430",
            "state": "Georgia",
            "latitude": "42.408716",
            "longitude": "-168.808751"
          },
          {
            "_id": "22429",
            "address": "184 Berry Street, Bridgetown, Virgin Islands, 3676",
            "phone": "+1 (970) 405-3814",
            "name": "Sybixtex",
            "propertyId": "36430",
            "state": "Nebraska",
            "latitude": "65.906719",
            "longitude": "-125.767673"
          },
          {
            "_id": "41249",
            "address": "908 Hubbard Place, Osmond, Oregon, 6329",
            "phone": "+1 (914) 442-3834",
            "name": "Kiosk",
            "propertyId": "36430",
            "state": "Oklahoma",
            "latitude": "-13.030712",
            "longitude": "77.441286"
          }
        ]
      }
    ]
  },
  {
    "_id": "42218",
    "isActive": false,
    "logo": "images/1.jpg",
    "picture": "https://placeholder.com/wp-content/uploads/2018/10/placeholder.com-logo3.jpg",
    "name": "ZERBINA",
    "phone": "+1 (814) 534-3567",
    "address": "269 Lake Avenue, Canby, Indiana, 9696",
    "email": "zerbina@zerbina.net",
    "properties": [
      {
        "_id": "22731",
        "address": "600 Hastings Street, Henrietta, Connecticut, 7856",
        "phone": "+1 (844) 574-2947",
        "name": "Ewaves",
        "tennantId": "42218",
        "state": "Florida",
        "latitude": "46.444227",
        "longitude": "-143.074736",
        "buildings": [
          {
            "_id": "64621",
            "address": "266 Hamilton Walk, Murillo, Colorado, 9147",
            "phone": "+1 (870) 486-2076",
            "name": "Oulu",
            "propertyId": "22731",
            "state": "Maryland",
            "latitude": "89.410136",
            "longitude": "-57.08412"
          },
          {
            "_id": "84466",
            "address": "933 Norman Avenue, Gerton, Alabama, 7666",
            "phone": "+1 (845) 453-3409",
            "name": "Isoplex",
            "propertyId": "22731",
            "state": "Kansas",
            "latitude": "17.859099",
            "longitude": "-151.664223"
          },
          {
            "_id": "38475",
            "address": "144 Throop Avenue, Cresaptown, Arkansas, 3173",
            "phone": "+1 (965) 447-3840",
            "name": "Earthmark",
            "propertyId": "22731",
            "state": "Washington",
            "latitude": "-80.801064",
            "longitude": "-11.308286"
          },
          {
            "_id": "49794",
            "address": "939 Everett Avenue, Hondah, New Jersey, 9461",
            "phone": "+1 (891) 443-2030",
            "name": "Geologix",
            "propertyId": "22731",
            "state": "Mississippi",
            "latitude": "-87.658994",
            "longitude": "39.903658"
          },
          {
            "_id": "61610",
            "address": "115 Lott Place, Norvelt, California, 8730",
            "phone": "+1 (953) 488-3136",
            "name": "Furnitech",
            "propertyId": "22731",
            "state": "Rhode Island",
            "latitude": "21.42145",
            "longitude": "-30.994071"
          }
        ]
      },
      {
        "_id": "46769",
        "address": "478 Cranberry Street, Basye, Ohio, 3539",
        "phone": "+1 (867) 465-2282",
        "name": "Pasturia",
        "tennantId": "42218",
        "state": "Virginia",
        "latitude": "-63.20987",
        "longitude": "153.989029",
        "buildings": [
          {
            "_id": "23427",
            "address": "132 Clermont Avenue, Echo, Illinois, 3026",
            "phone": "+1 (912) 473-2972",
            "name": "Balooba",
            "propertyId": "46769",
            "state": "Idaho",
            "latitude": "23.538899",
            "longitude": "-15.9743"
          },
          {
            "_id": "67199",
            "address": "715 Grand Avenue, Coleville, Texas, 895",
            "phone": "+1 (848) 539-2694",
            "name": "Nebulean",
            "propertyId": "46769",
            "state": "Palau",
            "latitude": "-27.600398",
            "longitude": "146.136529"
          },
          {
            "_id": "59678",
            "address": "853 Tennis Court, Lodoga, Tennessee, 5014",
            "phone": "+1 (861) 564-2242",
            "name": "Corepan",
            "propertyId": "46769",
            "state": "Marshall Islands",
            "latitude": "-40.314354",
            "longitude": "-177.093927"
          },
          {
            "_id": "44412",
            "address": "974 Lawn Court, Kula, Northern Mariana Islands, 2045",
            "phone": "+1 (866) 480-3071",
            "name": "Andryx",
            "propertyId": "46769",
            "state": "Hawaii",
            "latitude": "28.933603",
            "longitude": "-166.473816"
          },
          {
            "_id": "17051",
            "address": "698 Beadel Street, Balm, District Of Columbia, 2574",
            "phone": "+1 (810) 441-3464",
            "name": "Eyeris",
            "propertyId": "46769",
            "state": "Alaska",
            "latitude": "-55.382265",
            "longitude": "114.035507"
          },
          {
            "_id": "60482",
            "address": "307 Euclid Avenue, Barronett, South Dakota, 7472",
            "phone": "+1 (994) 561-2512",
            "name": "Comtext",
            "propertyId": "46769",
            "state": "Massachusetts",
            "latitude": "3.165647",
            "longitude": "124.735981"
          },
          {
            "_id": "12010",
            "address": "145 Florence Avenue, Caberfae, Utah, 1891",
            "phone": "+1 (863) 440-2435",
            "name": "Namegen",
            "propertyId": "46769",
            "state": "New Mexico",
            "latitude": "-3.862915",
            "longitude": "16.97178"
          },
          {
            "_id": "00901",
            "address": "348 Butler Street, Buxton, Michigan, 5810",
            "phone": "+1 (889) 469-2645",
            "name": "Geekola",
            "propertyId": "46769",
            "state": "North Carolina",
            "latitude": "-32.193579",
            "longitude": "165.633756"
          }
        ]
      },
      {
        "_id": "99879",
        "address": "496 Virginia Place, Finderne, New York, 5940",
        "phone": "+1 (895) 460-3002",
        "name": "Wrapture",
        "tennantId": "42218",
        "state": "Minnesota",
        "latitude": "-60.474383",
        "longitude": "59.657525",
        "buildings": [
          {
            "_id": "05296",
            "address": "520 Story Street, Clayville, Louisiana, 712",
            "phone": "+1 (913) 453-3999",
            "name": "Fuelworks",
            "propertyId": "99879",
            "state": "South Carolina",
            "latitude": "-84.153897",
            "longitude": "94.14803"
          },
          {
            "_id": "38587",
            "address": "501 Locust Avenue, Tonopah, Wisconsin, 5944",
            "phone": "+1 (804) 439-2945",
            "name": "Voipa",
            "propertyId": "99879",
            "state": "Missouri",
            "latitude": "-8.396867",
            "longitude": "63.613278"
          },
          {
            "_id": "84709",
            "address": "882 Gerald Court, Bergoo, Kentucky, 9637",
            "phone": "+1 (859) 550-3023",
            "name": "Biflex",
            "propertyId": "99879",
            "state": "New Hampshire",
            "latitude": "66.906822",
            "longitude": "173.411757"
          },
          {
            "_id": "01652",
            "address": "953 Fairview Place, Hatteras, North Dakota, 5254",
            "phone": "+1 (930) 434-2172",
            "name": "Oronoko",
            "propertyId": "99879",
            "state": "Iowa",
            "latitude": "6.763871",
            "longitude": "146.92324"
          },
          {
            "_id": "20386",
            "address": "722 Fleet Walk, Eastvale, Georgia, 1924",
            "phone": "+1 (824) 452-3439",
            "name": "Urbanshee",
            "propertyId": "99879",
            "state": "Virgin Islands",
            "latitude": "69.346464",
            "longitude": "-117.580419"
          },
          {
            "_id": "32461",
            "address": "763 Heyward Street, Hegins, Nebraska, 4976",
            "phone": "+1 (985) 468-2382",
            "name": "Quinex",
            "propertyId": "99879",
            "state": "Oregon",
            "latitude": "-60.7444",
            "longitude": "14.201053"
          },
          {
            "_id": "33374",
            "address": "682 Ditmars Street, Wadsworth, Oklahoma, 8472",
            "phone": "+1 (937) 497-3904",
            "name": "Hairport",
            "propertyId": "99879",
            "state": "Federated States Of Micronesia",
            "latitude": "-17.054518",
            "longitude": "93.897182"
          },
          {
            "_id": "23555",
            "address": "577 Village Road, Odessa, Arizona, 1559",
            "phone": "+1 (873) 558-3840",
            "name": "Kangle",
            "propertyId": "99879",
            "state": "Indiana",
            "latitude": "-61.958478",
            "longitude": "-153.73147"
          }
        ]
      },
      {
        "_id": "73453",
        "address": "570 Schenck Street, Ticonderoga, Colorado, 9791",
        "phone": "+1 (848) 460-3578",
        "name": "Lunchpod",
        "tennantId": "42218",
        "state": "Maryland",
        "latitude": "-18.926167",
        "longitude": "21.043268",
        "buildings": [
          {
            "_id": "38151",
            "address": "187 Kansas Place, Beaverdale, Alabama, 1457",
            "phone": "+1 (871) 554-3919",
            "name": "Orbin",
            "propertyId": "73453",
            "state": "Kansas",
            "latitude": "-84.54495",
            "longitude": "179.952505"
          },
          {
            "_id": "65414",
            "address": "894 Dare Court, Hailesboro, Arkansas, 1303",
            "phone": "+1 (958) 588-2253",
            "name": "Signity",
            "propertyId": "73453",
            "state": "Washington",
            "latitude": "-8.837803",
            "longitude": "47.382833"
          },
          {
            "_id": "24828",
            "address": "838 Townsend Street, Boonville, New Jersey, 4913",
            "phone": "+1 (886) 446-2810",
            "name": "Techmania",
            "propertyId": "73453",
            "state": "Mississippi",
            "latitude": "-10.097672",
            "longitude": "139.750024"
          },
          {
            "_id": "11307",
            "address": "224 Leonard Street, Oneida, California, 7490",
            "phone": "+1 (846) 520-3612",
            "name": "Indexia",
            "propertyId": "73453",
            "state": "Rhode Island",
            "latitude": "17.336636",
            "longitude": "-72.895445"
          },
          {
            "_id": "98449",
            "address": "362 Linden Street, Eagletown, West Virginia, 2880",
            "phone": "+1 (952) 464-3656",
            "name": "Gynk",
            "propertyId": "73453",
            "state": "Montana",
            "latitude": "34.193784",
            "longitude": "-113.367981"
          },
          {
            "_id": "71310",
            "address": "279 Malbone Street, Succasunna, Guam, 126",
            "phone": "+1 (958) 560-2167",
            "name": "Exovent",
            "propertyId": "73453",
            "state": "Maine",
            "latitude": "-6.826736",
            "longitude": "-75.942628"
          },
          {
            "_id": "07925",
            "address": "812 Quay Street, Chaparrito, Delaware, 7316",
            "phone": "+1 (856) 561-2813",
            "name": "Uberlux",
            "propertyId": "73453",
            "state": "Vermont",
            "latitude": "-33.114163",
            "longitude": "95.015221"
          }
        ]
      },
      {
        "_id": "89966",
        "address": "110 Reeve Place, Foscoe, Illinois, 6058",
        "phone": "+1 (980) 547-2587",
        "name": "Bugsall",
        "tennantId": "42218",
        "state": "Idaho",
        "latitude": "-12.642756",
        "longitude": "-160.029553",
        "buildings": [
          {
            "_id": "45576",
            "address": "620 Cameron Court, Riviera, Texas, 4099",
            "phone": "+1 (809) 468-2592",
            "name": "Anocha",
            "propertyId": "89966",
            "state": "Palau",
            "latitude": "77.716358",
            "longitude": "-109.770654"
          },
          {
            "_id": "03496",
            "address": "214 Kings Hwy, Breinigsville, Tennessee, 466",
            "phone": "+1 (971) 559-2560",
            "name": "Blanet",
            "propertyId": "89966",
            "state": "Marshall Islands",
            "latitude": "75.452232",
            "longitude": "112.044346"
          },
          {
            "_id": "70500",
            "address": "433 Tompkins Place, Waiohinu, Northern Mariana Islands, 6727",
            "phone": "+1 (855) 473-2113",
            "name": "Medcom",
            "propertyId": "89966",
            "state": "Hawaii",
            "latitude": "-87.12196",
            "longitude": "97.822982"
          },
          {
            "_id": "55368",
            "address": "505 Onderdonk Avenue, Corinne, District Of Columbia, 2065",
            "phone": "+1 (977) 456-2810",
            "name": "Corporana",
            "propertyId": "89966",
            "state": "Alaska",
            "latitude": "45.346987",
            "longitude": "-63.415257"
          },
          {
            "_id": "53352",
            "address": "666 Stone Avenue, Onton, South Dakota, 8491",
            "phone": "+1 (879) 555-2331",
            "name": "Roughies",
            "propertyId": "89966",
            "state": "Massachusetts",
            "latitude": "49.777094",
            "longitude": "66.76261"
          }
        ]
      },
      {
        "_id": "99425",
        "address": "386 Campus Road, Idledale, Louisiana, 2882",
        "phone": "+1 (902) 493-3150",
        "name": "Centrexin",
        "tennantId": "42218",
        "state": "South Carolina",
        "latitude": "-35.951113",
        "longitude": "-117.021547",
        "buildings": [
          {
            "_id": "65807",
            "address": "518 Monitor Street, Hinsdale, Wisconsin, 1972",
            "phone": "+1 (898) 571-2803",
            "name": "Duoflex",
            "propertyId": "99425",
            "state": "Missouri",
            "latitude": "77.691941",
            "longitude": "-68.903032"
          },
          {
            "_id": "90841",
            "address": "650 Chase Court, Floris, Kentucky, 1046",
            "phone": "+1 (912) 523-3274",
            "name": "Vurbo",
            "propertyId": "99425",
            "state": "New Hampshire",
            "latitude": "58.490622",
            "longitude": "157.952239"
          },
          {
            "_id": "71212",
            "address": "369 Miami Court, Rosewood, North Dakota, 7746",
            "phone": "+1 (929) 547-3777",
            "name": "Dreamia",
            "propertyId": "99425",
            "state": "Iowa",
            "latitude": "-70.904661",
            "longitude": "-111.422685"
          },
          {
            "_id": "79249",
            "address": "805 Johnson Street, Fredericktown, Georgia, 3848",
            "phone": "+1 (948) 435-2629",
            "name": "Apex",
            "propertyId": "99425",
            "state": "Virgin Islands",
            "latitude": "-42.318469",
            "longitude": "170.459821"
          },
          {
            "_id": "32602",
            "address": "412 Emmons Avenue, Grenelefe, Nebraska, 5580",
            "phone": "+1 (826) 408-3776",
            "name": "Ohmnet",
            "propertyId": "99425",
            "state": "Oregon",
            "latitude": "77.900307",
            "longitude": "143.712075"
          },
          {
            "_id": "52814",
            "address": "604 Furman Street, Snowville, Oklahoma, 6440",
            "phone": "+1 (937) 526-2208",
            "name": "Skybold",
            "propertyId": "99425",
            "state": "Federated States Of Micronesia",
            "latitude": "-25.83795",
            "longitude": "65.681234"
          },
          {
            "_id": "38420",
            "address": "289 Stryker Court, Gardners, Arizona, 8822",
            "phone": "+1 (880) 508-2553",
            "name": "Kozgene",
            "propertyId": "99425",
            "state": "Indiana",
            "latitude": "-43.447568",
            "longitude": "-90.742037"
          },
          {
            "_id": "84295",
            "address": "365 Engert Avenue, Cedarville, Connecticut, 1806",
            "phone": "+1 (849) 556-3314",
            "name": "Vendblend",
            "propertyId": "99425",
            "state": "Florida",
            "latitude": "-72.601883",
            "longitude": "-159.702326"
          },
          {
            "_id": "92940",
            "address": "392 Bliss Terrace, Chamizal, Colorado, 8751",
            "phone": "+1 (939) 471-2343",
            "name": "Delphide",
            "propertyId": "99425",
            "state": "Maryland",
            "latitude": "-33.094798",
            "longitude": "13.821681"
          }
        ]
      },
      {
        "_id": "80891",
        "address": "587 Lafayette Avenue, Independence, Alabama, 9441",
        "phone": "+1 (817) 458-2866",
        "name": "Goko",
        "tennantId": "42218",
        "state": "Kansas",
        "latitude": "-51.242342",
        "longitude": "-48.328064",
        "buildings": [
          {
            "_id": "15682",
            "address": "548 Russell Street, Cochranville, Arkansas, 6301",
            "phone": "+1 (994) 553-3961",
            "name": "Zaggle",
            "propertyId": "80891",
            "state": "Washington",
            "latitude": "-6.900116",
            "longitude": "138.862301"
          },
          {
            "_id": "79676",
            "address": "524 Fane Court, Maplewood, New Jersey, 5691",
            "phone": "+1 (955) 563-3050",
            "name": "Makingway",
            "propertyId": "80891",
            "state": "Mississippi",
            "latitude": "-30.804265",
            "longitude": "151.056522"
          },
          {
            "_id": "32965",
            "address": "167 Sands Street, Longoria, California, 9776",
            "phone": "+1 (834) 582-3502",
            "name": "Earthplex",
            "propertyId": "80891",
            "state": "Rhode Island",
            "latitude": "-83.025375",
            "longitude": "-112.304819"
          },
          {
            "_id": "50518",
            "address": "999 Dunne Court, Hilltop, West Virginia, 2253",
            "phone": "+1 (945) 434-3311",
            "name": "Neteria",
            "propertyId": "80891",
            "state": "Montana",
            "latitude": "71.653096",
            "longitude": "175.128568"
          },
          {
            "_id": "60421",
            "address": "449 Ocean Court, Jamestown, Guam, 6382",
            "phone": "+1 (972) 404-3554",
            "name": "Aeora",
            "propertyId": "80891",
            "state": "Maine",
            "latitude": "36.50399",
            "longitude": "-161.830058"
          }
        ]
      }
    ]
  },
  {
    "_id": "52352",
    "isActive": false,
    "logo": "images/2.jpg",
    "picture": "https://placeholder.com/wp-content/uploads/2018/10/placeholder.com-logo3.jpg",
    "name": "ZOARERE",
    "phone": "+1 (991) 516-2534",
    "address": "730 Bragg Street, Stouchsburg, Arkansas, 495",
    "email": "zoarere@zoarere.me",
    "properties": [
      {
        "_id": "64260",
        "address": "165 Legion Street, Fontanelle, Washington, 1853",
        "phone": "+1 (986) 443-3574",
        "name": "Zialactic",
        "tennantId": "52352",
        "state": "New Jersey",
        "latitude": "-45.532534",
        "longitude": "55.056417",
        "buildings": [
          {
            "_id": "38884",
            "address": "562 Overbaugh Place, Freelandville, Mississippi, 3237",
            "phone": "+1 (869) 430-2471",
            "name": "Optyk",
            "propertyId": "64260",
            "state": "California",
            "latitude": "79.556727",
            "longitude": "120.340271"
          },
          {
            "_id": "11852",
            "address": "821 Grafton Street, Hayes, Rhode Island, 819",
            "phone": "+1 (979) 432-3644",
            "name": "Xoggle",
            "propertyId": "64260",
            "state": "West Virginia",
            "latitude": "60.793133",
            "longitude": "-93.455768"
          },
          {
            "_id": "52484",
            "address": "803 Cleveland Street, Belgreen, Montana, 526",
            "phone": "+1 (902) 438-2857",
            "name": "Teraprene",
            "propertyId": "64260",
            "state": "Guam",
            "latitude": "-89.372469",
            "longitude": "14.984221"
          },
          {
            "_id": "83126",
            "address": "102 Forbell Street, Guilford, Maine, 8273",
            "phone": "+1 (915) 552-2228",
            "name": "Quilm",
            "propertyId": "64260",
            "state": "Delaware",
            "latitude": "-17.250439",
            "longitude": "-57.565843"
          },
          {
            "_id": "79144",
            "address": "453 Beacon Court, Coyote, Vermont, 9697",
            "phone": "+1 (898) 556-3348",
            "name": "Norsup",
            "propertyId": "64260",
            "state": "Puerto Rico",
            "latitude": "-55.964374",
            "longitude": "110.306232"
          },
          {
            "_id": "87814",
            "address": "151 Havemeyer Street, Topanga, American Samoa, 5732",
            "phone": "+1 (819) 447-3295",
            "name": "Slax",
            "propertyId": "64260",
            "state": "Ohio",
            "latitude": "-33.52009",
            "longitude": "-62.755233"
          },
          {
            "_id": "75205",
            "address": "797 Grimes Road, Zarephath, Virginia, 5789",
            "phone": "+1 (969) 597-2489",
            "name": "Euron",
            "propertyId": "64260",
            "state": "Illinois",
            "latitude": "42.119579",
            "longitude": "40.139644"
          },
          {
            "_id": "92154",
            "address": "940 Hegeman Avenue, Broadlands, Idaho, 8848",
            "phone": "+1 (960) 418-3047",
            "name": "Genesynk",
            "propertyId": "64260",
            "state": "Texas",
            "latitude": "18.20172",
            "longitude": "-27.910669"
          },
          {
            "_id": "68750",
            "address": "315 Chauncey Street, Dodge, Palau, 6117",
            "phone": "+1 (822) 435-3323",
            "name": "Polaria",
            "propertyId": "64260",
            "state": "Tennessee",
            "latitude": "-48.897069",
            "longitude": "4.214183"
          }
        ]
      },
      {
        "_id": "81235",
        "address": "946 Jerome Avenue, Levant, Marshall Islands, 6508",
        "phone": "+1 (947) 504-2264",
        "name": "Xyqag",
        "tennantId": "52352",
        "state": "Northern Mariana Islands",
        "latitude": "-35.551431",
        "longitude": "-15.741141",
        "buildings": [
          {
            "_id": "46659",
            "address": "513 Havens Place, Cliff, Hawaii, 3419",
            "phone": "+1 (884) 458-2823",
            "name": "Caxt",
            "propertyId": "81235",
            "state": "District Of Columbia",
            "latitude": "-5.140932",
            "longitude": "9.072693"
          },
          {
            "_id": "52234",
            "address": "622 Coleridge Street, Alderpoint, Alaska, 2696",
            "phone": "+1 (970) 537-2627",
            "name": "Exoteric",
            "propertyId": "81235",
            "state": "South Dakota",
            "latitude": "14.520113",
            "longitude": "-28.621729"
          },
          {
            "_id": "87986",
            "address": "797 Chester Avenue, Loomis, Massachusetts, 647",
            "phone": "+1 (990) 571-3726",
            "name": "Geekology",
            "propertyId": "81235",
            "state": "Utah",
            "latitude": "84.200687",
            "longitude": "-112.333384"
          },
          {
            "_id": "48636",
            "address": "237 Cooke Court, Allendale, New Mexico, 4050",
            "phone": "+1 (917) 498-2989",
            "name": "Organica",
            "propertyId": "81235",
            "state": "Michigan",
            "latitude": "55.685291",
            "longitude": "137.218336"
          },
          {
            "_id": "01697",
            "address": "233 Ruby Street, Bend, North Carolina, 9555",
            "phone": "+1 (929) 547-3101",
            "name": "Stucco",
            "propertyId": "81235",
            "state": "Wyoming",
            "latitude": "20.297885",
            "longitude": "-71.345615"
          },
          {
            "_id": "39509",
            "address": "530 Prospect Place, Townsend, Pennsylvania, 8295",
            "phone": "+1 (879) 409-3817",
            "name": "Plutorque",
            "propertyId": "81235",
            "state": "New York",
            "latitude": "-17.375731",
            "longitude": "48.229522"
          },
          {
            "_id": "08870",
            "address": "408 Duryea Court, Hobucken, Minnesota, 9506",
            "phone": "+1 (932) 549-2126",
            "name": "Uplinx",
            "propertyId": "81235",
            "state": "Louisiana",
            "latitude": "24.982639",
            "longitude": "56.78376"
          },
          {
            "_id": "13427",
            "address": "763 College Place, Brooktrails, South Carolina, 9060",
            "phone": "+1 (866) 496-3768",
            "name": "Brainquil",
            "propertyId": "81235",
            "state": "Wisconsin",
            "latitude": "-56.007102",
            "longitude": "25.795182"
          },
          {
            "_id": "51220",
            "address": "447 Dinsmore Place, Diaperville, Missouri, 1485",
            "phone": "+1 (905) 443-2874",
            "name": "Neurocell",
            "propertyId": "81235",
            "state": "Kentucky",
            "latitude": "-0.877152",
            "longitude": "72.071454"
          }
        ]
      },
      {
        "_id": "50951",
        "address": "563 Rochester Avenue, Winston, New Hampshire, 5496",
        "phone": "+1 (873) 478-3061",
        "name": "Adornica",
        "tennantId": "52352",
        "state": "North Dakota",
        "latitude": "-14.250928",
        "longitude": "159.479292",
        "buildings": [
          {
            "_id": "83997",
            "address": "924 Fanchon Place, Klondike, Iowa, 8298",
            "phone": "+1 (972) 535-2502",
            "name": "Fuelton",
            "propertyId": "50951",
            "state": "Georgia",
            "latitude": "-60.195887",
            "longitude": "43.58929"
          },
          {
            "_id": "60769",
            "address": "950 Crescent Street, Kenwood, Virgin Islands, 9867",
            "phone": "+1 (986) 428-3454",
            "name": "Surelogic",
            "propertyId": "50951",
            "state": "Nebraska",
            "latitude": "22.494493",
            "longitude": "-58.44202"
          },
          {
            "_id": "29299",
            "address": "342 Troutman Street, Dragoon, Oregon, 2035",
            "phone": "+1 (965) 505-3424",
            "name": "Mediot",
            "propertyId": "50951",
            "state": "Oklahoma",
            "latitude": "-51.422595",
            "longitude": "121.881735"
          },
          {
            "_id": "57919",
            "address": "829 Crosby Avenue, Ripley, Federated States Of Micronesia, 935",
            "phone": "+1 (906) 482-2473",
            "name": "Lovepad",
            "propertyId": "50951",
            "state": "Arizona",
            "latitude": "9.265369",
            "longitude": "87.458317"
          },
          {
            "_id": "65772",
            "address": "848 Thomas Street, Churchill, Indiana, 5799",
            "phone": "+1 (918) 559-3465",
            "name": "Deviltoe",
            "propertyId": "50951",
            "state": "Connecticut",
            "latitude": "43.754551",
            "longitude": "12.116818"
          }
        ]
      },
      {
        "_id": "24099",
        "address": "313 Ryder Avenue, Rote, Mississippi, 1233",
        "phone": "+1 (894) 482-2638",
        "name": "Strozen",
        "tennantId": "52352",
        "state": "California",
        "latitude": "-35.81421",
        "longitude": "5.052144",
        "buildings": [
          {
            "_id": "89022",
            "address": "639 Borinquen Pl, Jeff, Rhode Island, 3418",
            "phone": "+1 (979) 446-2494",
            "name": "Aquazure",
            "propertyId": "24099",
            "state": "West Virginia",
            "latitude": "-73.22382",
            "longitude": "127.776153"
          },
          {
            "_id": "50323",
            "address": "224 Bay Avenue, Benson, Montana, 7856",
            "phone": "+1 (865) 536-3081",
            "name": "Virva",
            "propertyId": "24099",
            "state": "Guam",
            "latitude": "23.627764",
            "longitude": "90.338684"
          },
          {
            "_id": "55698",
            "address": "906 Oxford Walk, Montura, Maine, 2961",
            "phone": "+1 (960) 472-2808",
            "name": "Vertide",
            "propertyId": "24099",
            "state": "Delaware",
            "latitude": "-64.593013",
            "longitude": "-92.26648"
          },
          {
            "_id": "15229",
            "address": "823 Battery Avenue, Tecolotito, Vermont, 5919",
            "phone": "+1 (809) 562-3610",
            "name": "Tubalum",
            "propertyId": "24099",
            "state": "Puerto Rico",
            "latitude": "-66.768936",
            "longitude": "-3.991063"
          },
          {
            "_id": "36176",
            "address": "352 Louis Place, Ballico, American Samoa, 6935",
            "phone": "+1 (836) 546-2007",
            "name": "Glasstep",
            "propertyId": "24099",
            "state": "Ohio",
            "latitude": "60.867186",
            "longitude": "155.810493"
          },
          {
            "_id": "30201",
            "address": "238 Jackson Street, Snelling, Virginia, 1605",
            "phone": "+1 (837) 590-3602",
            "name": "Zaphire",
            "propertyId": "24099",
            "state": "Illinois",
            "latitude": "53.847096",
            "longitude": "113.159315"
          },
          {
            "_id": "32148",
            "address": "583 Wolf Place, Fannett, Idaho, 1909",
            "phone": "+1 (990) 402-2448",
            "name": "Kiggle",
            "propertyId": "24099",
            "state": "Texas",
            "latitude": "-8.724159",
            "longitude": "169.308954"
          },
          {
            "_id": "51896",
            "address": "520 Ash Street, Veguita, Palau, 1066",
            "phone": "+1 (813) 521-2199",
            "name": "Insectus",
            "propertyId": "24099",
            "state": "Tennessee",
            "latitude": "6.73198",
            "longitude": "-172.493061"
          }
        ]
      },
      {
        "_id": "24061",
        "address": "968 Bergen Court, Longbranch, Hawaii, 4977",
        "phone": "+1 (801) 422-3450",
        "name": "Exospeed",
        "tennantId": "52352",
        "state": "District Of Columbia",
        "latitude": "63.181656",
        "longitude": "140.578284",
        "buildings": [
          {
            "_id": "95612",
            "address": "991 Montague Terrace, Jacksonburg, Alaska, 7480",
            "phone": "+1 (826) 520-2176",
            "name": "Automon",
            "propertyId": "24061",
            "state": "South Dakota",
            "latitude": "4.653685",
            "longitude": "84.570787"
          },
          {
            "_id": "60729",
            "address": "744 Kossuth Place, Shepardsville, Massachusetts, 8120",
            "phone": "+1 (927) 586-2212",
            "name": "Zuvy",
            "propertyId": "24061",
            "state": "Utah",
            "latitude": "-46.634734",
            "longitude": "165.486366"
          },
          {
            "_id": "74807",
            "address": "747 Pershing Loop, Cornfields, New Mexico, 2622",
            "phone": "+1 (824) 511-3261",
            "name": "Zentry",
            "propertyId": "24061",
            "state": "Michigan",
            "latitude": "83.26448",
            "longitude": "-161.967572"
          },
          {
            "_id": "67135",
            "address": "631 Cheever Place, Ruckersville, North Carolina, 5621",
            "phone": "+1 (936) 461-3927",
            "name": "Hatology",
            "propertyId": "24061",
            "state": "Wyoming",
            "latitude": "-35.241982",
            "longitude": "-138.736654"
          },
          {
            "_id": "58680",
            "address": "763 Vandam Street, Oretta, Pennsylvania, 7848",
            "phone": "+1 (891) 507-2801",
            "name": "Cofine",
            "propertyId": "24061",
            "state": "New York",
            "latitude": "-50.066564",
            "longitude": "-119.328522"
          }
        ]
      },
      {
        "_id": "51007",
        "address": "303 Driggs Avenue, Orick, Iowa, 5665",
        "phone": "+1 (840) 569-3113",
        "name": "Gink",
        "tennantId": "52352",
        "state": "Georgia",
        "latitude": "30.13557",
        "longitude": "-101.987005",
        "buildings": [
          {
            "_id": "20085",
            "address": "872 Bedford Avenue, Hannasville, Virgin Islands, 7327",
            "phone": "+1 (936) 588-3168",
            "name": "Norsul",
            "propertyId": "51007",
            "state": "Nebraska",
            "latitude": "44.676273",
            "longitude": "159.26117"
          },
          {
            "_id": "24551",
            "address": "958 Henderson Walk, Chalfant, Oregon, 1771",
            "phone": "+1 (930) 490-2486",
            "name": "Zoid",
            "propertyId": "51007",
            "state": "Oklahoma",
            "latitude": "40.417435",
            "longitude": "174.817971"
          },
          {
            "_id": "65987",
            "address": "718 Woodrow Court, Avalon, Federated States Of Micronesia, 6662",
            "phone": "+1 (859) 480-2543",
            "name": "Darwinium",
            "propertyId": "51007",
            "state": "Arizona",
            "latitude": "-41.390163",
            "longitude": "-37.98642"
          },
          {
            "_id": "54357",
            "address": "413 Irwin Street, Elrama, Indiana, 4066",
            "phone": "+1 (955) 588-2057",
            "name": "Zilodyne",
            "propertyId": "51007",
            "state": "Connecticut",
            "latitude": "-59.047641",
            "longitude": "-90.233544"
          },
          {
            "_id": "99310",
            "address": "808 Imlay Street, Ezel, Florida, 9202",
            "phone": "+1 (907) 485-3060",
            "name": "Confrenzy",
            "propertyId": "51007",
            "state": "Colorado",
            "latitude": "20.522252",
            "longitude": "-126.946596"
          },
          {
            "_id": "07599",
            "address": "817 Interborough Parkway, Garfield, Maryland, 7896",
            "phone": "+1 (869) 484-2821",
            "name": "Emtrac",
            "propertyId": "51007",
            "state": "Alabama",
            "latitude": "65.238781",
            "longitude": "129.674255"
          }
        ]
      }
    ]
  },
  {
    "_id": "99377",
    "isActive": true,
    "logo": "images/3.jpg",
    "picture": "https://placeholder.com/wp-content/uploads/2018/10/placeholder.com-logo3.jpg",
    "name": "TROLLERY",
    "phone": "+1 (928) 460-3319",
    "address": "468 Matthews Place, Robinson, Montana, 7420",
    "email": "trollery@trollery.info",
    "properties": [
      {
        "_id": "59116",
        "address": "873 Falmouth Street, Franklin, Guam, 1763",
        "phone": "+1 (894) 597-2439",
        "name": "Temorak",
        "tennantId": "99377",
        "state": "Maine",
        "latitude": "-28.350485",
        "longitude": "-170.455415",
        "buildings": [
          {
            "_id": "96037",
            "address": "952 Dumont Avenue, Faxon, Delaware, 3740",
            "phone": "+1 (925) 500-3872",
            "name": "Ecratic",
            "propertyId": "59116",
            "state": "Vermont",
            "latitude": "-14.946258",
            "longitude": "122.180857"
          },
          {
            "_id": "18231",
            "address": "839 Gaylord Drive, Chesapeake, Puerto Rico, 1970",
            "phone": "+1 (897) 565-3096",
            "name": "Supportal",
            "propertyId": "59116",
            "state": "American Samoa",
            "latitude": "-30.379496",
            "longitude": "-61.871777"
          },
          {
            "_id": "88442",
            "address": "808 Catherine Street, Fivepointville, Ohio, 2385",
            "phone": "+1 (949) 540-3455",
            "name": "Endipine",
            "propertyId": "59116",
            "state": "Virginia",
            "latitude": "55.010157",
            "longitude": "-42.603917"
          },
          {
            "_id": "97622",
            "address": "219 Fuller Place, Muir, Illinois, 3406",
            "phone": "+1 (905) 416-2834",
            "name": "Nutralab",
            "propertyId": "59116",
            "state": "Idaho",
            "latitude": "80.440443",
            "longitude": "63.118064"
          },
          {
            "_id": "18355",
            "address": "849 Highlawn Avenue, Orin, Texas, 836",
            "phone": "+1 (813) 491-2796",
            "name": "Kneedles",
            "propertyId": "59116",
            "state": "Palau",
            "latitude": "3.662769",
            "longitude": "-168.261353"
          }
        ]
      },
      {
        "_id": "17923",
        "address": "444 Baughman Place, Croom, Utah, 6442",
        "phone": "+1 (856) 424-2234",
        "name": "Paragonia",
        "tennantId": "99377",
        "state": "New Mexico",
        "latitude": "-84.075958",
        "longitude": "1.417913",
        "buildings": [
          {
            "_id": "50405",
            "address": "404 Folsom Place, Fingerville, Michigan, 132",
            "phone": "+1 (958) 453-2091",
            "name": "Pawnagra",
            "propertyId": "17923",
            "state": "North Carolina",
            "latitude": "58.637212",
            "longitude": "-15.744977"
          },
          {
            "_id": "02158",
            "address": "440 Woodhull Street, Dixie, Wyoming, 8686",
            "phone": "+1 (846) 488-3298",
            "name": "Isotrack",
            "propertyId": "17923",
            "state": "Pennsylvania",
            "latitude": "-70.135288",
            "longitude": "92.154143"
          },
          {
            "_id": "81725",
            "address": "972 Dahill Road, Martinez, New York, 6703",
            "phone": "+1 (805) 419-3716",
            "name": "Junipoor",
            "propertyId": "17923",
            "state": "Minnesota",
            "latitude": "68.403282",
            "longitude": "-157.084479"
          },
          {
            "_id": "33678",
            "address": "549 Bancroft Place, Kieler, Louisiana, 2519",
            "phone": "+1 (868) 567-3756",
            "name": "Empirica",
            "propertyId": "17923",
            "state": "South Carolina",
            "latitude": "-49.360082",
            "longitude": "-62.302576"
          },
          {
            "_id": "43176",
            "address": "794 Tilden Avenue, Urbana, Wisconsin, 1624",
            "phone": "+1 (978) 581-2342",
            "name": "Quonata",
            "propertyId": "17923",
            "state": "Missouri",
            "latitude": "-35.051847",
            "longitude": "139.355865"
          },
          {
            "_id": "61523",
            "address": "257 Centre Street, Grayhawk, Kentucky, 6761",
            "phone": "+1 (813) 495-2885",
            "name": "Earbang",
            "propertyId": "17923",
            "state": "New Hampshire",
            "latitude": "-70.561261",
            "longitude": "64.681725"
          },
          {
            "_id": "83206",
            "address": "150 Dodworth Street, Titanic, North Dakota, 4660",
            "phone": "+1 (974) 558-2446",
            "name": "Lingoage",
            "propertyId": "17923",
            "state": "Iowa",
            "latitude": "-29.216745",
            "longitude": "7.602637"
          }
        ]
      },
      {
        "_id": "84870",
        "address": "824 Bay Parkway, Rivereno, Oklahoma, 9936",
        "phone": "+1 (888) 466-3869",
        "name": "Dentrex",
        "tennantId": "99377",
        "state": "Federated States Of Micronesia",
        "latitude": "-60.230492",
        "longitude": "127.057262",
        "buildings": [
          {
            "_id": "17603",
            "address": "527 Indiana Place, Tolu, Arizona, 6646",
            "phone": "+1 (956) 478-3095",
            "name": "Digigene",
            "propertyId": "84870",
            "state": "Indiana",
            "latitude": "-34.704481",
            "longitude": "-135.164564"
          },
          {
            "_id": "69989",
            "address": "757 Poplar Avenue, Dyckesville, Connecticut, 5635",
            "phone": "+1 (992) 466-2052",
            "name": "Entropix",
            "propertyId": "84870",
            "state": "Florida",
            "latitude": "-55.942977",
            "longitude": "136.647257"
          },
          {
            "_id": "21495",
            "address": "257 Newport Street, Richford, Colorado, 8903",
            "phone": "+1 (896) 530-3062",
            "name": "Phuel",
            "propertyId": "84870",
            "state": "Maryland",
            "latitude": "-8.99163",
            "longitude": "6.954534"
          },
          {
            "_id": "53150",
            "address": "189 Melba Court, Nicut, Alabama, 2456",
            "phone": "+1 (880) 486-2494",
            "name": "Greeker",
            "propertyId": "84870",
            "state": "Kansas",
            "latitude": "84.775935",
            "longitude": "-1.711535"
          },
          {
            "_id": "58958",
            "address": "695 Scholes Street, Yukon, Arkansas, 9065",
            "phone": "+1 (915) 450-2267",
            "name": "Otherway",
            "propertyId": "84870",
            "state": "Washington",
            "latitude": "67.968084",
            "longitude": "-100.646272"
          },
          {
            "_id": "24713",
            "address": "302 Bryant Street, Hollymead, New Jersey, 4607",
            "phone": "+1 (947) 567-3952",
            "name": "Zillacon",
            "propertyId": "84870",
            "state": "Mississippi",
            "latitude": "-18.032225",
            "longitude": "112.352134"
          },
          {
            "_id": "91773",
            "address": "572 Fair Street, Chautauqua, California, 9646",
            "phone": "+1 (882) 471-3786",
            "name": "Multron",
            "propertyId": "84870",
            "state": "Rhode Island",
            "latitude": "-40.619654",
            "longitude": "-14.555893"
          },
          {
            "_id": "77089",
            "address": "327 Willmohr Street, Maxville, West Virginia, 1602",
            "phone": "+1 (835) 557-2723",
            "name": "Polarium",
            "propertyId": "84870",
            "state": "Montana",
            "latitude": "52.381485",
            "longitude": "-111.179064"
          },
          {
            "_id": "29902",
            "address": "480 Aberdeen Street, Gilgo, Guam, 5368",
            "phone": "+1 (892) 499-3161",
            "name": "Avenetro",
            "propertyId": "84870",
            "state": "Maine",
            "latitude": "53.231226",
            "longitude": "-71.786201"
          }
        ]
      },
      {
        "_id": "48243",
        "address": "854 Seigel Court, Fostoria, Delaware, 9559",
        "phone": "+1 (858) 432-3912",
        "name": "Comtest",
        "tennantId": "99377",
        "state": "Vermont",
        "latitude": "-26.347873",
        "longitude": "88.172348",
        "buildings": [
          {
            "_id": "44740",
            "address": "984 Krier Place, Cawood, Puerto Rico, 9291",
            "phone": "+1 (818) 526-3662",
            "name": "Scentric",
            "propertyId": "48243",
            "state": "American Samoa",
            "latitude": "77.132687",
            "longitude": "-91.92226"
          },
          {
            "_id": "09219",
            "address": "217 Schenck Place, Orovada, Ohio, 9392",
            "phone": "+1 (844) 573-3193",
            "name": "Datacator",
            "propertyId": "48243",
            "state": "Virginia",
            "latitude": "32.878173",
            "longitude": "-138.93206"
          },
          {
            "_id": "40977",
            "address": "882 Dictum Court, Muse, Illinois, 4904",
            "phone": "+1 (988) 427-2217",
            "name": "Cormoran",
            "propertyId": "48243",
            "state": "Idaho",
            "latitude": "-4.80448",
            "longitude": "-51.86039"
          },
          {
            "_id": "81505",
            "address": "703 Lefferts Avenue, Glenbrook, Texas, 9530",
            "phone": "+1 (857) 595-2431",
            "name": "Ebidco",
            "propertyId": "48243",
            "state": "Palau",
            "latitude": "11.681978",
            "longitude": "-25.174692"
          },
          {
            "_id": "70451",
            "address": "925 Fulton Street, Bayview, Tennessee, 8845",
            "phone": "+1 (850) 521-2373",
            "name": "Senmao",
            "propertyId": "48243",
            "state": "Marshall Islands",
            "latitude": "-40.664208",
            "longitude": "-86.681948"
          },
          {
            "_id": "65772",
            "address": "556 Rost Place, Haring, Northern Mariana Islands, 1512",
            "phone": "+1 (821) 572-2164",
            "name": "Accuprint",
            "propertyId": "48243",
            "state": "Hawaii",
            "latitude": "-10.650873",
            "longitude": "-105.620805"
          },
          {
            "_id": "42445",
            "address": "207 Hinckley Place, Chase, District Of Columbia, 4641",
            "phone": "+1 (930) 594-2326",
            "name": "Beadzza",
            "propertyId": "48243",
            "state": "Alaska",
            "latitude": "22.725593",
            "longitude": "90.831528"
          }
        ]
      },
      {
        "_id": "94336",
        "address": "235 India Street, Wakarusa, Michigan, 4412",
        "phone": "+1 (810) 480-3091",
        "name": "Furnigeer",
        "tennantId": "99377",
        "state": "North Carolina",
        "latitude": "67.732693",
        "longitude": "64.560234",
        "buildings": [
          {
            "_id": "70486",
            "address": "715 Sackman Street, Makena, Wyoming, 4691",
            "phone": "+1 (947) 573-2096",
            "name": "Senmei",
            "propertyId": "94336",
            "state": "Pennsylvania",
            "latitude": "38.786186",
            "longitude": "-23.748035"
          },
          {
            "_id": "65164",
            "address": "331 Bartlett Place, Wakulla, New York, 4150",
            "phone": "+1 (901) 483-2021",
            "name": "Bisba",
            "propertyId": "94336",
            "state": "Minnesota",
            "latitude": "74.276274",
            "longitude": "-35.015791"
          },
          {
            "_id": "59615",
            "address": "127 Sheffield Avenue, Herbster, Louisiana, 8940",
            "phone": "+1 (934) 509-2166",
            "name": "Genmy",
            "propertyId": "94336",
            "state": "South Carolina",
            "latitude": "59.95304",
            "longitude": "148.162457"
          },
          {
            "_id": "05685",
            "address": "628 Verona Street, Brazos, Wisconsin, 7870",
            "phone": "+1 (815) 430-2201",
            "name": "Sentia",
            "propertyId": "94336",
            "state": "Missouri",
            "latitude": "-12.019231",
            "longitude": "-65.247593"
          },
          {
            "_id": "93062",
            "address": "575 Girard Street, Martell, Kentucky, 7834",
            "phone": "+1 (875) 530-2565",
            "name": "Mantrix",
            "propertyId": "94336",
            "state": "New Hampshire",
            "latitude": "-80.404854",
            "longitude": "1.261987"
          }
        ]
      },
      {
        "_id": "11517",
        "address": "138 Elmwood Avenue, Catharine, Arizona, 1485",
        "phone": "+1 (867) 587-2370",
        "name": "Accupharm",
        "tennantId": "99377",
        "state": "Indiana",
        "latitude": "73.039306",
        "longitude": "-80.083819",
        "buildings": [
          {
            "_id": "05047",
            "address": "821 Friel Place, Graniteville, Connecticut, 7574",
            "phone": "+1 (950) 560-2759",
            "name": "Fitcore",
            "propertyId": "11517",
            "state": "Florida",
            "latitude": "-5.275355",
            "longitude": "148.227366"
          },
          {
            "_id": "22634",
            "address": "586 Riverdale Avenue, Marshall, Colorado, 1686",
            "phone": "+1 (838) 555-2676",
            "name": "Xleen",
            "propertyId": "11517",
            "state": "Maryland",
            "latitude": "-87.236003",
            "longitude": "179.492645"
          },
          {
            "_id": "66551",
            "address": "445 Highland Avenue, Dargan, Alabama, 4259",
            "phone": "+1 (907) 486-2493",
            "name": "Exospace",
            "propertyId": "11517",
            "state": "Kansas",
            "latitude": "-70.495957",
            "longitude": "86.88179"
          },
          {
            "_id": "63557",
            "address": "500 Kaufman Place, Tooleville, Arkansas, 7461",
            "phone": "+1 (891) 573-2115",
            "name": "Calcula",
            "propertyId": "11517",
            "state": "Washington",
            "latitude": "30.699388",
            "longitude": "-33.696929"
          },
          {
            "_id": "47278",
            "address": "864 Kay Court, Albany, New Jersey, 4698",
            "phone": "+1 (897) 516-2765",
            "name": "Melbacor",
            "propertyId": "11517",
            "state": "Mississippi",
            "latitude": "-78.805502",
            "longitude": "40.191316"
          },
          {
            "_id": "62999",
            "address": "629 Pilling Street, Belmont, California, 9254",
            "phone": "+1 (801) 419-3263",
            "name": "Endipin",
            "propertyId": "11517",
            "state": "Rhode Island",
            "latitude": "20.240449",
            "longitude": "-67.010001"
          }
        ]
      }
    ]
  },
  {
    "_id": "95366",
    "isActive": true,
    "logo": "images/4.jpg",
    "picture": "https://placeholder.com/wp-content/uploads/2018/10/placeholder.com-logo3.jpg",
    "name": "KNOWLYSIS",
    "phone": "+1 (943) 422-3377",
    "address": "124 Woodpoint Road, Martinsville, Ohio, 9843",
    "email": "knowlysis@knowlysis.ca",
    "properties": [
      {
        "_id": "11228",
        "address": "386 Ridgewood Avenue, Bagtown, Virginia, 638",
        "phone": "+1 (959) 581-3656",
        "name": "Centice",
        "tennantId": "95366",
        "state": "Illinois",
        "latitude": "52.410834",
        "longitude": "-106.42514",
        "buildings": [
          {
            "_id": "47132",
            "address": "315 Herkimer Street, Wikieup, Idaho, 5824",
            "phone": "+1 (953) 443-3304",
            "name": "Luxuria",
            "propertyId": "11228",
            "state": "Texas",
            "latitude": "-43.808786",
            "longitude": "3.765644"
          },
          {
            "_id": "26683",
            "address": "267 Lenox Road, Sussex, Palau, 1814",
            "phone": "+1 (839) 468-2616",
            "name": "Bedder",
            "propertyId": "11228",
            "state": "Tennessee",
            "latitude": "-54.380195",
            "longitude": "33.628752"
          },
          {
            "_id": "77063",
            "address": "889 Jardine Place, Sena, Marshall Islands, 5369",
            "phone": "+1 (919) 477-2856",
            "name": "Jumpstack",
            "propertyId": "11228",
            "state": "Northern Mariana Islands",
            "latitude": "-40.037368",
            "longitude": "119.262383"
          },
          {
            "_id": "40554",
            "address": "773 Ridge Court, Kingstowne, Hawaii, 5902",
            "phone": "+1 (877) 593-3753",
            "name": "Momentia",
            "propertyId": "11228",
            "state": "District Of Columbia",
            "latitude": "52.92266",
            "longitude": "-145.35256"
          },
          {
            "_id": "49212",
            "address": "165 Voorhies Avenue, Fairhaven, Alaska, 8987",
            "phone": "+1 (942) 577-3072",
            "name": "Voratak",
            "propertyId": "11228",
            "state": "South Dakota",
            "latitude": "-56.627273",
            "longitude": "-135.948572"
          },
          {
            "_id": "47942",
            "address": "748 Terrace Place, Brenton, Massachusetts, 6493",
            "phone": "+1 (964) 495-3551",
            "name": "Baluba",
            "propertyId": "11228",
            "state": "Utah",
            "latitude": "70.692193",
            "longitude": "58.762105"
          },
          {
            "_id": "24970",
            "address": "136 Downing Street, Adelino, New Mexico, 2067",
            "phone": "+1 (937) 512-2466",
            "name": "Digique",
            "propertyId": "11228",
            "state": "Michigan",
            "latitude": "79.354049",
            "longitude": "156.109831"
          }
        ]
      },
      {
        "_id": "24410",
        "address": "914 Paerdegat Avenue, Biehle, Minnesota, 3157",
        "phone": "+1 (992) 600-3867",
        "name": "Sonique",
        "tennantId": "95366",
        "state": "Louisiana",
        "latitude": "77.366998",
        "longitude": "140.312314",
        "buildings": [
          {
            "_id": "05586",
            "address": "868 Dewitt Avenue, Frank, South Carolina, 8436",
            "phone": "+1 (832) 443-3559",
            "name": "Omatom",
            "propertyId": "24410",
            "state": "Wisconsin",
            "latitude": "-35.236432",
            "longitude": "-5.658596"
          },
          {
            "_id": "81204",
            "address": "799 Madison Street, Morningside, Missouri, 3855",
            "phone": "+1 (982) 412-3063",
            "name": "Austech",
            "propertyId": "24410",
            "state": "Kentucky",
            "latitude": "-0.800188",
            "longitude": "-136.232743"
          },
          {
            "_id": "61736",
            "address": "548 Sunnyside Court, Cetronia, New Hampshire, 3000",
            "phone": "+1 (859) 443-2587",
            "name": "Bulljuice",
            "propertyId": "24410",
            "state": "North Dakota",
            "latitude": "-76.363665",
            "longitude": "-121.939556"
          },
          {
            "_id": "79998",
            "address": "893 Beach Place, Bethpage, Iowa, 4368",
            "phone": "+1 (809) 519-3091",
            "name": "Snowpoke",
            "propertyId": "24410",
            "state": "Georgia",
            "latitude": "-83.54426",
            "longitude": "96.509577"
          },
          {
            "_id": "98795",
            "address": "677 Glenmore Avenue, Whitewater, Virgin Islands, 2022",
            "phone": "+1 (866) 557-2433",
            "name": "Syntac",
            "propertyId": "24410",
            "state": "Nebraska",
            "latitude": "-7.745186",
            "longitude": "-179.724646"
          },
          {
            "_id": "29256",
            "address": "991 Amersfort Place, Gwynn, Oregon, 1262",
            "phone": "+1 (915) 580-3264",
            "name": "Elentrix",
            "propertyId": "24410",
            "state": "Oklahoma",
            "latitude": "66.602156",
            "longitude": "-42.567007"
          },
          {
            "_id": "80630",
            "address": "907 Cadman Plaza, Emison, Federated States Of Micronesia, 8362",
            "phone": "+1 (882) 558-3253",
            "name": "Medifax",
            "propertyId": "24410",
            "state": "Arizona",
            "latitude": "-63.932974",
            "longitude": "123.11418"
          },
          {
            "_id": "67387",
            "address": "558 Oak Street, Kipp, Indiana, 689",
            "phone": "+1 (974) 412-3644",
            "name": "Velos",
            "propertyId": "24410",
            "state": "Connecticut",
            "latitude": "-46.962967",
            "longitude": "172.295444"
          },
          {
            "_id": "26700",
            "address": "782 Degraw Street, Carrizo, Florida, 8849",
            "phone": "+1 (849) 426-3349",
            "name": "Velity",
            "propertyId": "24410",
            "state": "Colorado",
            "latitude": "-38.555596",
            "longitude": "109.984667"
          }
        ]
      },
      {
        "_id": "38454",
        "address": "787 Duryea Place, Glenville, Maryland, 1692",
        "phone": "+1 (847) 486-2752",
        "name": "Plasmox",
        "tennantId": "95366",
        "state": "Alabama",
        "latitude": "-34.789446",
        "longitude": "-77.09027",
        "buildings": [
          {
            "_id": "16429",
            "address": "252 Lawrence Street, Cloverdale, Kansas, 9529",
            "phone": "+1 (966) 542-3481",
            "name": "Toyletry",
            "propertyId": "38454",
            "state": "Arkansas",
            "latitude": "5.899153",
            "longitude": "11.087262"
          },
          {
            "_id": "50757",
            "address": "411 Dearborn Court, Efland, Washington, 7081",
            "phone": "+1 (843) 529-2777",
            "name": "Ontality",
            "propertyId": "38454",
            "state": "New Jersey",
            "latitude": "72.874921",
            "longitude": "132.903915"
          },
          {
            "_id": "70923",
            "address": "275 Guernsey Street, Carbonville, Mississippi, 6660",
            "phone": "+1 (977) 424-2634",
            "name": "Poochies",
            "propertyId": "38454",
            "state": "California",
            "latitude": "56.727194",
            "longitude": "135.519304"
          },
          {
            "_id": "11713",
            "address": "291 Aviation Road, Hendersonville, Rhode Island, 3104",
            "phone": "+1 (811) 525-2670",
            "name": "Ecosys",
            "propertyId": "38454",
            "state": "West Virginia",
            "latitude": "65.239958",
            "longitude": "138.455257"
          },
          {
            "_id": "23050",
            "address": "467 Adler Place, Belva, Montana, 5116",
            "phone": "+1 (893) 462-2330",
            "name": "Zanymax",
            "propertyId": "38454",
            "state": "Guam",
            "latitude": "23.026658",
            "longitude": "176.126529"
          },
          {
            "_id": "87132",
            "address": "928 Madeline Court, Needmore, Maine, 1323",
            "phone": "+1 (889) 574-3439",
            "name": "Electonic",
            "propertyId": "38454",
            "state": "Delaware",
            "latitude": "-62.691341",
            "longitude": "139.409779"
          },
          {
            "_id": "09207",
            "address": "776 Farragut Road, Derwood, Vermont, 5067",
            "phone": "+1 (919) 419-2256",
            "name": "Irack",
            "propertyId": "38454",
            "state": "Puerto Rico",
            "latitude": "-17.506356",
            "longitude": "-44.600535"
          },
          {
            "_id": "73427",
            "address": "887 Lorraine Street, Harborton, American Samoa, 5008",
            "phone": "+1 (908) 587-3454",
            "name": "Geostele",
            "propertyId": "38454",
            "state": "Ohio",
            "latitude": "63.935149",
            "longitude": "-26.375656"
          }
        ]
      },
      {
        "_id": "10266",
        "address": "470 Bond Street, Spokane, Idaho, 9090",
        "phone": "+1 (951) 584-3481",
        "name": "Insurity",
        "tennantId": "95366",
        "state": "Texas",
        "latitude": "-59.484017",
        "longitude": "173.700666",
        "buildings": [
          {
            "_id": "62283",
            "address": "912 Bainbridge Street, Drytown, Palau, 5765",
            "phone": "+1 (833) 412-3631",
            "name": "Maximind",
            "propertyId": "10266",
            "state": "Tennessee",
            "latitude": "-17.877136",
            "longitude": "63.208788"
          },
          {
            "_id": "33817",
            "address": "288 Pooles Lane, Crumpler, Marshall Islands, 6529",
            "phone": "+1 (884) 442-3003",
            "name": "Savvy",
            "propertyId": "10266",
            "state": "Northern Mariana Islands",
            "latitude": "84.231648",
            "longitude": "-96.600984"
          },
          {
            "_id": "19694",
            "address": "136 Provost Street, Riner, Hawaii, 7060",
            "phone": "+1 (983) 567-2054",
            "name": "Hyplex",
            "propertyId": "10266",
            "state": "District Of Columbia",
            "latitude": "27.228906",
            "longitude": "0.550283"
          },
          {
            "_id": "53853",
            "address": "401 Chestnut Avenue, Roberts, Alaska, 983",
            "phone": "+1 (964) 540-2151",
            "name": "Extragene",
            "propertyId": "10266",
            "state": "South Dakota",
            "latitude": "82.949381",
            "longitude": "42.545954"
          },
          {
            "_id": "44780",
            "address": "606 Wallabout Street, Byrnedale, Massachusetts, 9883",
            "phone": "+1 (871) 587-3001",
            "name": "Kenegy",
            "propertyId": "10266",
            "state": "Utah",
            "latitude": "-38.076774",
            "longitude": "146.694288"
          }
        ]
      },
      {
        "_id": "10695",
        "address": "390 Dakota Place, Cavalero, South Carolina, 9243",
        "phone": "+1 (887) 597-2856",
        "name": "Columella",
        "tennantId": "95366",
        "state": "Wisconsin",
        "latitude": "76.181026",
        "longitude": "116.03477",
        "buildings": [
          {
            "_id": "16689",
            "address": "184 Hubbard Street, Romeville, Missouri, 5829",
            "phone": "+1 (843) 551-2751",
            "name": "Exerta",
            "propertyId": "10695",
            "state": "Kentucky",
            "latitude": "-62.738494",
            "longitude": "-142.920369"
          },
          {
            "_id": "32513",
            "address": "359 Stryker Street, Lavalette, New Hampshire, 6000",
            "phone": "+1 (837) 461-3114",
            "name": "Bolax",
            "propertyId": "10695",
            "state": "North Dakota",
            "latitude": "-45.474738",
            "longitude": "-82.500944"
          },
          {
            "_id": "76948",
            "address": "250 Forest Place, Greer, Iowa, 8637",
            "phone": "+1 (934) 519-3185",
            "name": "Vetron",
            "propertyId": "10695",
            "state": "Georgia",
            "latitude": "84.382407",
            "longitude": "-119.973341"
          },
          {
            "_id": "27682",
            "address": "253 Brighton Court, Escondida, Virgin Islands, 8053",
            "phone": "+1 (937) 569-2539",
            "name": "Ontagene",
            "propertyId": "10695",
            "state": "Nebraska",
            "latitude": "-44.908616",
            "longitude": "-115.713729"
          },
          {
            "_id": "53678",
            "address": "180 Colin Place, Waterview, Oregon, 7217",
            "phone": "+1 (977) 495-2108",
            "name": "Sarasonic",
            "propertyId": "10695",
            "state": "Oklahoma",
            "latitude": "65.103454",
            "longitude": "-26.150916"
          },
          {
            "_id": "47925",
            "address": "476 Burnett Street, Talpa, Federated States Of Micronesia, 7761",
            "phone": "+1 (857) 406-2817",
            "name": "Zilla",
            "propertyId": "10695",
            "state": "Arizona",
            "latitude": "-17.024766",
            "longitude": "-130.357217"
          },
          {
            "_id": "76856",
            "address": "277 Sutter Avenue, Homestead, Indiana, 1088",
            "phone": "+1 (868) 568-2287",
            "name": "Portico",
            "propertyId": "10695",
            "state": "Connecticut",
            "latitude": "69.151487",
            "longitude": "26.631346"
          },
          {
            "_id": "18769",
            "address": "321 Losee Terrace, Salvo, Florida, 4767",
            "phone": "+1 (814) 409-3225",
            "name": "Retrack",
            "propertyId": "10695",
            "state": "Colorado",
            "latitude": "63.51271",
            "longitude": "133.529039"
          },
          {
            "_id": "01928",
            "address": "489 Turner Place, Accoville, Maryland, 7274",
            "phone": "+1 (971) 509-2693",
            "name": "Isosure",
            "propertyId": "10695",
            "state": "Alabama",
            "latitude": "29.326103",
            "longitude": "-59.481525"
          }
        ]
      }
    ]
  },
  {
    "_id": "39806",
    "isActive": true,
    "logo": "images/5.jpg",
    "picture": "https://placeholder.com/wp-content/uploads/2018/10/placeholder.com-logo3.jpg",
    "name": "VANTAGE",
    "phone": "+1 (966) 480-2715",
    "address": "393 Hanover Place, Coinjock, Marshall Islands, 5297",
    "email": "vantage@vantage.org",
    "properties": [
      {
        "_id": "02097",
        "address": "416 Grove Place, Brandywine, Northern Mariana Islands, 389",
        "phone": "+1 (926) 504-3397",
        "name": "Micronaut",
        "tennantId": "39806",
        "state": "Hawaii",
        "latitude": "72.050326",
        "longitude": "150.922821",
        "buildings": [
          {
            "_id": "36941",
            "address": "375 Sumner Place, Sedley, District Of Columbia, 5607",
            "phone": "+1 (863) 521-2191",
            "name": "Equicom",
            "propertyId": "02097",
            "state": "Alaska",
            "latitude": "17.253267",
            "longitude": "137.898529"
          },
          {
            "_id": "40303",
            "address": "315 Strong Place, Hall, South Dakota, 7225",
            "phone": "+1 (907) 413-3120",
            "name": "Ludak",
            "propertyId": "02097",
            "state": "Massachusetts",
            "latitude": "-75.408358",
            "longitude": "68.897778"
          },
          {
            "_id": "81894",
            "address": "975 Garland Court, Celeryville, Utah, 4211",
            "phone": "+1 (983) 512-3697",
            "name": "Emergent",
            "propertyId": "02097",
            "state": "New Mexico",
            "latitude": "25.901765",
            "longitude": "108.189413"
          },
          {
            "_id": "38160",
            "address": "984 Georgia Avenue, Verdi, Michigan, 4987",
            "phone": "+1 (820) 522-3925",
            "name": "Zentime",
            "propertyId": "02097",
            "state": "North Carolina",
            "latitude": "-52.914039",
            "longitude": "167.251919"
          },
          {
            "_id": "69359",
            "address": "256 Milford Street, Olney, Wyoming, 9441",
            "phone": "+1 (922) 541-2896",
            "name": "Dognost",
            "propertyId": "02097",
            "state": "Pennsylvania",
            "latitude": "24.887188",
            "longitude": "47.79192"
          },
          {
            "_id": "05143",
            "address": "557 Woodbine Street, Northchase, New York, 5993",
            "phone": "+1 (963) 571-3395",
            "name": "Decratex",
            "propertyId": "02097",
            "state": "Minnesota",
            "latitude": "4.684971",
            "longitude": "6.742677"
          }
        ]
      },
      {
        "_id": "00035",
        "address": "242 Dunham Place, Katonah, North Dakota, 1464",
        "phone": "+1 (921) 539-2834",
        "name": "Petigems",
        "tennantId": "39806",
        "state": "Iowa",
        "latitude": "-51.504052",
        "longitude": "45.084791",
        "buildings": [
          {
            "_id": "90263",
            "address": "328 Gain Court, Dana, Georgia, 9953",
            "phone": "+1 (906) 457-2397",
            "name": "Zoinage",
            "propertyId": "00035",
            "state": "Virgin Islands",
            "latitude": "52.904558",
            "longitude": "-142.877194"
          },
          {
            "_id": "18119",
            "address": "761 Agate Court, Allensworth, Nebraska, 3956",
            "phone": "+1 (814) 545-2900",
            "name": "Proflex",
            "propertyId": "00035",
            "state": "Oregon",
            "latitude": "-84.796721",
            "longitude": "-19.341704"
          },
          {
            "_id": "53661",
            "address": "869 Luquer Street, Clarence, Oklahoma, 1938",
            "phone": "+1 (833) 419-3044",
            "name": "Inrt",
            "propertyId": "00035",
            "state": "Federated States Of Micronesia",
            "latitude": "-51.58101",
            "longitude": "89.410491"
          },
          {
            "_id": "06479",
            "address": "110 Polar Street, Lumberton, Arizona, 9851",
            "phone": "+1 (986) 430-2275",
            "name": "Biolive",
            "propertyId": "00035",
            "state": "Indiana",
            "latitude": "11.883736",
            "longitude": "41.400087"
          },
          {
            "_id": "10927",
            "address": "196 Montgomery Place, Wanamie, Connecticut, 2909",
            "phone": "+1 (972) 403-2290",
            "name": "Zerology",
            "propertyId": "00035",
            "state": "Florida",
            "latitude": "36.305762",
            "longitude": "-3.723191"
          },
          {
            "_id": "18771",
            "address": "156 Channel Avenue, Farmers, Colorado, 1142",
            "phone": "+1 (975) 575-3257",
            "name": "Izzby",
            "propertyId": "00035",
            "state": "Maryland",
            "latitude": "-46.198096",
            "longitude": "-61.333483"
          },
          {
            "_id": "36647",
            "address": "356 Tech Place, Calvary, Alabama, 2273",
            "phone": "+1 (967) 514-3853",
            "name": "Enormo",
            "propertyId": "00035",
            "state": "Kansas",
            "latitude": "39.040816",
            "longitude": "149.60077"
          },
          {
            "_id": "60873",
            "address": "863 Beverly Road, Boykin, Arkansas, 2411",
            "phone": "+1 (884) 445-2974",
            "name": "Egypto",
            "propertyId": "00035",
            "state": "Washington",
            "latitude": "58.632843",
            "longitude": "12.352177"
          },
          {
            "_id": "64111",
            "address": "979 Nichols Avenue, Johnsonburg, New Jersey, 9566",
            "phone": "+1 (870) 476-3083",
            "name": "Scenty",
            "propertyId": "00035",
            "state": "Mississippi",
            "latitude": "-35.973101",
            "longitude": "-147.272641"
          }
        ]
      },
      {
        "_id": "88561",
        "address": "443 Essex Street, Masthope, California, 9695",
        "phone": "+1 (913) 584-3594",
        "name": "Deepends",
        "tennantId": "39806",
        "state": "Rhode Island",
        "latitude": "5.45637",
        "longitude": "78.442085",
        "buildings": [
          {
            "_id": "84363",
            "address": "832 Foster Avenue, Baden, West Virginia, 2981",
            "phone": "+1 (963) 423-2039",
            "name": "Xplor",
            "propertyId": "88561",
            "state": "Montana",
            "latitude": "87.453104",
            "longitude": "140.641951"
          },
          {
            "_id": "84077",
            "address": "926 Seaview Avenue, Logan, Guam, 8840",
            "phone": "+1 (876) 475-3946",
            "name": "Spherix",
            "propertyId": "88561",
            "state": "Maine",
            "latitude": "38.267025",
            "longitude": "-20.644999"
          },
          {
            "_id": "01406",
            "address": "198 Ralph Avenue, Calverton, Delaware, 8155",
            "phone": "+1 (961) 572-2173",
            "name": "Calcu",
            "propertyId": "88561",
            "state": "Vermont",
            "latitude": "-52.571322",
            "longitude": "-152.35266"
          },
          {
            "_id": "43299",
            "address": "830 Coventry Road, Tuttle, Puerto Rico, 6348",
            "phone": "+1 (883) 559-2728",
            "name": "Namebox",
            "propertyId": "88561",
            "state": "American Samoa",
            "latitude": "88.705221",
            "longitude": "70.861305"
          },
          {
            "_id": "84453",
            "address": "265 Rockaway Avenue, Malott, Ohio, 8112",
            "phone": "+1 (937) 410-2651",
            "name": "Gallaxia",
            "propertyId": "88561",
            "state": "Virginia",
            "latitude": "38.478055",
            "longitude": "124.179351"
          }
        ]
      },
      {
        "_id": "61303",
        "address": "338 Willoughby Avenue, Fidelis, District Of Columbia, 8491",
        "phone": "+1 (986) 422-3105",
        "name": "Netropic",
        "tennantId": "39806",
        "state": "Alaska",
        "latitude": "35.680901",
        "longitude": "165.614872",
        "buildings": [
          {
            "_id": "76621",
            "address": "158 Crooke Avenue, Orviston, South Dakota, 6195",
            "phone": "+1 (912) 545-3220",
            "name": "Tellifly",
            "propertyId": "61303",
            "state": "Massachusetts",
            "latitude": "83.156611",
            "longitude": "154.22545"
          },
          {
            "_id": "13194",
            "address": "624 Homecrest Court, Lookingglass, Utah, 4180",
            "phone": "+1 (933) 492-3640",
            "name": "Autograte",
            "propertyId": "61303",
            "state": "New Mexico",
            "latitude": "-84.131932",
            "longitude": "3.337408"
          },
          {
            "_id": "81210",
            "address": "764 Meserole Avenue, Blende, Michigan, 6903",
            "phone": "+1 (892) 543-3151",
            "name": "Proxsoft",
            "propertyId": "61303",
            "state": "North Carolina",
            "latitude": "60.717324",
            "longitude": "-100.670488"
          },
          {
            "_id": "13516",
            "address": "332 Tillary Street, Fairfield, Wyoming, 9419",
            "phone": "+1 (892) 490-2653",
            "name": "Quilch",
            "propertyId": "61303",
            "state": "Pennsylvania",
            "latitude": "-84.34907",
            "longitude": "-4.981236"
          },
          {
            "_id": "42837",
            "address": "322 Barbey Street, Caledonia, New York, 7467",
            "phone": "+1 (999) 589-2205",
            "name": "Gleamink",
            "propertyId": "61303",
            "state": "Minnesota",
            "latitude": "-10.903648",
            "longitude": "41.064656"
          },
          {
            "_id": "49242",
            "address": "561 Visitation Place, Robinette, Louisiana, 5985",
            "phone": "+1 (977) 540-3749",
            "name": "Exotechno",
            "propertyId": "61303",
            "state": "South Carolina",
            "latitude": "-86.204277",
            "longitude": "-22.141854"
          },
          {
            "_id": "24778",
            "address": "362 Fillmore Place, Williston, Wisconsin, 9718",
            "phone": "+1 (835) 457-3049",
            "name": "Netplax",
            "propertyId": "61303",
            "state": "Missouri",
            "latitude": "62.791268",
            "longitude": "109.944972"
          }
        ]
      },
      {
        "_id": "37176",
        "address": "972 Stuart Street, Mulino, Georgia, 7723",
        "phone": "+1 (833) 424-2681",
        "name": "Zentix",
        "tennantId": "39806",
        "state": "Virgin Islands",
        "latitude": "87.211725",
        "longitude": "-109.304901",
        "buildings": [
          {
            "_id": "14065",
            "address": "700 Boerum Place, Utting, Nebraska, 8460",
            "phone": "+1 (975) 519-2841",
            "name": "Mazuda",
            "propertyId": "37176",
            "state": "Oregon",
            "latitude": "48.975229",
            "longitude": "51.988816"
          },
          {
            "_id": "87648",
            "address": "258 Seacoast Terrace, Greenbush, Oklahoma, 8400",
            "phone": "+1 (971) 556-2009",
            "name": "Frolix",
            "propertyId": "37176",
            "state": "Federated States Of Micronesia",
            "latitude": "-46.811164",
            "longitude": "70.380179"
          },
          {
            "_id": "95712",
            "address": "903 Vermont Street, Kenmar, Arizona, 352",
            "phone": "+1 (903) 444-2283",
            "name": "Remold",
            "propertyId": "37176",
            "state": "Indiana",
            "latitude": "-65.099181",
            "longitude": "130.549931"
          },
          {
            "_id": "52704",
            "address": "475 Doscher Street, Roy, Connecticut, 4639",
            "phone": "+1 (856) 540-3417",
            "name": "Navir",
            "propertyId": "37176",
            "state": "Florida",
            "latitude": "-76.138981",
            "longitude": "-8.523784"
          },
          {
            "_id": "09306",
            "address": "265 Hendrix Street, Vicksburg, Colorado, 1171",
            "phone": "+1 (901) 403-3946",
            "name": "Xymonk",
            "propertyId": "37176",
            "state": "Maryland",
            "latitude": "39.609566",
            "longitude": "-24.674928"
          }
        ]
      }
    ]
  },
  {
    "_id": "17566",
    "isActive": true,
    "logo": "images/6.jpg",
    "picture": "https://placeholder.com/wp-content/uploads/2018/10/placeholder.com-logo3.jpg",
    "name": "OBONES",
    "phone": "+1 (947) 572-2454",
    "address": "997 Bowery Street, Helen, Utah, 4070",
    "email": "obones@obones.co.uk",
    "properties": [
      {
        "_id": "35697",
        "address": "238 Veronica Place, Sardis, New Mexico, 1262",
        "phone": "+1 (855) 505-3163",
        "name": "Kineticut",
        "tennantId": "17566",
        "state": "Michigan",
        "latitude": "-1.816706",
        "longitude": "-25.335458",
        "buildings": [
          {
            "_id": "14908",
            "address": "318 Norfolk Street, Yardville, North Carolina, 7903",
            "phone": "+1 (912) 583-2787",
            "name": "Qimonk",
            "propertyId": "35697",
            "state": "Wyoming",
            "latitude": "-50.647704",
            "longitude": "-74.005004"
          },
          {
            "_id": "17448",
            "address": "101 Atlantic Avenue, Otranto, Pennsylvania, 5050",
            "phone": "+1 (895) 549-2072",
            "name": "Zedalis",
            "propertyId": "35697",
            "state": "New York",
            "latitude": "60.232651",
            "longitude": "-120.019183"
          },
          {
            "_id": "64021",
            "address": "735 Corbin Place, Barstow, Minnesota, 2602",
            "phone": "+1 (807) 423-3347",
            "name": "Slambda",
            "propertyId": "35697",
            "state": "Louisiana",
            "latitude": "83.395519",
            "longitude": "141.824786"
          },
          {
            "_id": "70216",
            "address": "747 Cedar Street, Saranap, South Carolina, 4167",
            "phone": "+1 (969) 434-3843",
            "name": "Extragen",
            "propertyId": "35697",
            "state": "Wisconsin",
            "latitude": "33.869993",
            "longitude": "-69.364314"
          },
          {
            "_id": "19877",
            "address": "322 Schaefer Street, Grill, Missouri, 844",
            "phone": "+1 (973) 544-3763",
            "name": "Xerex",
            "propertyId": "35697",
            "state": "Kentucky",
            "latitude": "-9.863702",
            "longitude": "93.797406"
          },
          {
            "_id": "14453",
            "address": "261 Navy Walk, Trexlertown, New Hampshire, 6386",
            "phone": "+1 (995) 557-3979",
            "name": "Uxmox",
            "propertyId": "35697",
            "state": "North Dakota",
            "latitude": "32.93526",
            "longitude": "-102.944853"
          }
        ]
      },
      {
        "_id": "61267",
        "address": "784 Sullivan Place, Norris, Federated States Of Micronesia, 3679",
        "phone": "+1 (828) 456-2931",
        "name": "Bluegrain",
        "tennantId": "17566",
        "state": "Arizona",
        "latitude": "-34.025897",
        "longitude": "158.532927",
        "buildings": [
          {
            "_id": "09154",
            "address": "456 Bradford Street, Warren, Indiana, 1212",
            "phone": "+1 (902) 424-2491",
            "name": "Roboid",
            "propertyId": "61267",
            "state": "Connecticut",
            "latitude": "-39.498869",
            "longitude": "30.630774"
          },
          {
            "_id": "36754",
            "address": "833 Court Street, Forbestown, Florida, 5769",
            "phone": "+1 (840) 565-3967",
            "name": "Dragbot",
            "propertyId": "61267",
            "state": "Colorado",
            "latitude": "-2.10099",
            "longitude": "-167.803411"
          },
          {
            "_id": "63891",
            "address": "231 Ferry Place, Ventress, Maryland, 7301",
            "phone": "+1 (957) 553-2085",
            "name": "Frosnex",
            "propertyId": "61267",
            "state": "Alabama",
            "latitude": "50.785594",
            "longitude": "-99.93955"
          },
          {
            "_id": "11684",
            "address": "339 Dupont Street, Frierson, Kansas, 2732",
            "phone": "+1 (833) 587-2574",
            "name": "Isodrive",
            "propertyId": "61267",
            "state": "Arkansas",
            "latitude": "80.378411",
            "longitude": "-103.275983"
          },
          {
            "_id": "93138",
            "address": "348 Keen Court, Callaghan, Washington, 3040",
            "phone": "+1 (835) 410-3686",
            "name": "Marketoid",
            "propertyId": "61267",
            "state": "New Jersey",
            "latitude": "86.569919",
            "longitude": "-25.002989"
          },
          {
            "_id": "18300",
            "address": "560 Amboy Street, Walland, Mississippi, 5064",
            "phone": "+1 (814) 587-2554",
            "name": "Thredz",
            "propertyId": "61267",
            "state": "California",
            "latitude": "42.420019",
            "longitude": "-92.514955"
          }
        ]
      },
      {
        "_id": "17091",
        "address": "991 Llama Court, Winesburg, Vermont, 2404",
        "phone": "+1 (995) 562-3720",
        "name": "Kindaloo",
        "tennantId": "17566",
        "state": "Puerto Rico",
        "latitude": "-25.441925",
        "longitude": "-151.602177",
        "buildings": [
          {
            "_id": "33298",
            "address": "351 Just Court, Crenshaw, American Samoa, 5089",
            "phone": "+1 (914) 566-3676",
            "name": "Grupoli",
            "propertyId": "17091",
            "state": "Ohio",
            "latitude": "51.183358",
            "longitude": "-128.508472"
          },
          {
            "_id": "65864",
            "address": "943 Sapphire Street, Sharon, Virginia, 3311",
            "phone": "+1 (921) 542-3106",
            "name": "Geofarm",
            "propertyId": "17091",
            "state": "Illinois",
            "latitude": "-14.330274",
            "longitude": "161.964911"
          },
          {
            "_id": "34305",
            "address": "303 Meeker Avenue, Navarre, Idaho, 9380",
            "phone": "+1 (912) 598-2710",
            "name": "Daycore",
            "propertyId": "17091",
            "state": "Texas",
            "latitude": "64.320054",
            "longitude": "-69.604818"
          },
          {
            "_id": "16717",
            "address": "519 Jodie Court, Newcastle, Palau, 1291",
            "phone": "+1 (905) 502-2256",
            "name": "Eyewax",
            "propertyId": "17091",
            "state": "Tennessee",
            "latitude": "-77.213718",
            "longitude": "-172.650404"
          },
          {
            "_id": "68340",
            "address": "552 Wythe Avenue, Wacissa, Marshall Islands, 1437",
            "phone": "+1 (847) 493-3139",
            "name": "Geekus",
            "propertyId": "17091",
            "state": "Northern Mariana Islands",
            "latitude": "11.26011",
            "longitude": "4.470746"
          }
        ]
      },
      {
        "_id": "88852",
        "address": "414 Martense Street, Villarreal, North Carolina, 1802",
        "phone": "+1 (832) 596-2419",
        "name": "Tetak",
        "tennantId": "17566",
        "state": "Wyoming",
        "latitude": "-20.397649",
        "longitude": "57.297697",
        "buildings": [
          {
            "_id": "06768",
            "address": "772 Perry Place, Marne, Pennsylvania, 7759",
            "phone": "+1 (897) 497-2805",
            "name": "Cytrek",
            "propertyId": "88852",
            "state": "New York",
            "latitude": "22.660478",
            "longitude": "173.36213"
          },
          {
            "_id": "04839",
            "address": "546 Ingraham Street, Beaulieu, Minnesota, 8539",
            "phone": "+1 (920) 503-3084",
            "name": "Crustatia",
            "propertyId": "88852",
            "state": "Louisiana",
            "latitude": "62.436434",
            "longitude": "-16.52605"
          },
          {
            "_id": "54881",
            "address": "275 Poplar Street, Wheaton, South Carolina, 1140",
            "phone": "+1 (909) 455-3891",
            "name": "Comtrail",
            "propertyId": "88852",
            "state": "Wisconsin",
            "latitude": "-17.697723",
            "longitude": "-134.506667"
          },
          {
            "_id": "37140",
            "address": "769 Tapscott Avenue, Deseret, Missouri, 286",
            "phone": "+1 (905) 495-3095",
            "name": "Boilicon",
            "propertyId": "88852",
            "state": "Kentucky",
            "latitude": "34.339338",
            "longitude": "-117.463871"
          },
          {
            "_id": "82486",
            "address": "474 Desmond Court, Machias, New Hampshire, 2107",
            "phone": "+1 (946) 413-2738",
            "name": "Extremo",
            "propertyId": "88852",
            "state": "North Dakota",
            "latitude": "-5.463353",
            "longitude": "144.376596"
          },
          {
            "_id": "87647",
            "address": "567 Orange Street, Evergreen, Iowa, 7838",
            "phone": "+1 (990) 430-3142",
            "name": "Filodyne",
            "propertyId": "88852",
            "state": "Georgia",
            "latitude": "-68.933755",
            "longitude": "130.413183"
          }
        ]
      },
      {
        "_id": "86946",
        "address": "442 Bayview Avenue, Clinton, Indiana, 7198",
        "phone": "+1 (905) 579-3598",
        "name": "Zaj",
        "tennantId": "17566",
        "state": "Connecticut",
        "latitude": "-14.533904",
        "longitude": "140.595166",
        "buildings": [
          {
            "_id": "85779",
            "address": "353 Homecrest Avenue, Duryea, Florida, 3549",
            "phone": "+1 (837) 408-3841",
            "name": "Qot",
            "propertyId": "86946",
            "state": "Colorado",
            "latitude": "80.601058",
            "longitude": "66.172723"
          },
          {
            "_id": "29621",
            "address": "634 Howard Avenue, Oasis, Maryland, 2572",
            "phone": "+1 (810) 494-2720",
            "name": "Cinaster",
            "propertyId": "86946",
            "state": "Alabama",
            "latitude": "-72.432507",
            "longitude": "-173.621062"
          },
          {
            "_id": "86754",
            "address": "747 Meadow Street, Hampstead, Kansas, 8841",
            "phone": "+1 (930) 597-2834",
            "name": "Zboo",
            "propertyId": "86946",
            "state": "Arkansas",
            "latitude": "-53.209767",
            "longitude": "35.770157"
          },
          {
            "_id": "09934",
            "address": "569 Coffey Street, Beyerville, Washington, 819",
            "phone": "+1 (960) 499-2260",
            "name": "Kinetica",
            "propertyId": "86946",
            "state": "New Jersey",
            "latitude": "-22.342439",
            "longitude": "-76.6573"
          },
          {
            "_id": "43041",
            "address": "415 Nassau Avenue, Richville, Mississippi, 6632",
            "phone": "+1 (921) 502-2465",
            "name": "Quailcom",
            "propertyId": "86946",
            "state": "California",
            "latitude": "85.086173",
            "longitude": "17.297044"
          }
        ]
      }
    ]
  },
  {
    "_id": "33609",
    "isActive": true,
    "logo": "images/7.jpg",
    "picture": "https://placeholder.com/wp-content/uploads/2018/10/placeholder.com-logo3.jpg",
    "name": "IMKAN",
    "phone": "+1 (848) 492-3674",
    "address": "559 Boardwalk , Lutsen, Minnesota, 9683",
    "email": "imkan@imkan.io",
    "properties": [
      {
        "_id": "31584",
        "address": "849 Clark Street, Clay, Louisiana, 1487",
        "phone": "+1 (904) 559-3378",
        "name": "Comstruct",
        "tennantId": "33609",
        "state": "South Carolina",
        "latitude": "26.377707",
        "longitude": "-107.633095",
        "buildings": [
          {
            "_id": "30644",
            "address": "640 National Drive, Cutter, Wisconsin, 4856",
            "phone": "+1 (967) 403-2096",
            "name": "Cubix",
            "propertyId": "31584",
            "state": "Missouri",
            "latitude": "20.770653",
            "longitude": "121.46284"
          },
          {
            "_id": "03229",
            "address": "357 Canda Avenue, Grimsley, Kentucky, 4916",
            "phone": "+1 (804) 490-3358",
            "name": "Housedown",
            "propertyId": "31584",
            "state": "New Hampshire",
            "latitude": "8.542455",
            "longitude": "28.180141"
          },
          {
            "_id": "32260",
            "address": "680 Midwood Street, Ryderwood, North Dakota, 8278",
            "phone": "+1 (896) 521-2125",
            "name": "Comvex",
            "propertyId": "31584",
            "state": "Iowa",
            "latitude": "25.268128",
            "longitude": "-33.911422"
          },
          {
            "_id": "49720",
            "address": "127 Bergen Street, Convent, Georgia, 6153",
            "phone": "+1 (884) 598-3792",
            "name": "Acrodance",
            "propertyId": "31584",
            "state": "Virgin Islands",
            "latitude": "84.556611",
            "longitude": "-114.721549"
          },
          {
            "_id": "21480",
            "address": "906 Everit Street, Grandview, Nebraska, 6164",
            "phone": "+1 (850) 501-3112",
            "name": "Hawkster",
            "propertyId": "31584",
            "state": "Oregon",
            "latitude": "-53.605263",
            "longitude": "100.429523"
          },
          {
            "_id": "06916",
            "address": "955 Batchelder Street, Salix, Oklahoma, 7726",
            "phone": "+1 (914) 553-2875",
            "name": "Zolarex",
            "propertyId": "31584",
            "state": "Federated States Of Micronesia",
            "latitude": "-35.940471",
            "longitude": "54.641136"
          },
          {
            "_id": "98728",
            "address": "358 Waldane Court, Kiskimere, Arizona, 9331",
            "phone": "+1 (843) 538-3857",
            "name": "Exposa",
            "propertyId": "31584",
            "state": "Indiana",
            "latitude": "-78.37143",
            "longitude": "-57.620559"
          },
          {
            "_id": "78668",
            "address": "211 Trucklemans Lane, Wildwood, Connecticut, 426",
            "phone": "+1 (998) 558-2591",
            "name": "Mondicil",
            "propertyId": "31584",
            "state": "Florida",
            "latitude": "-25.3859",
            "longitude": "114.233378"
          }
        ]
      },
      {
        "_id": "23654",
        "address": "502 Evergreen Avenue, Gorst, Alabama, 5197",
        "phone": "+1 (963) 561-2591",
        "name": "Shopabout",
        "tennantId": "33609",
        "state": "Kansas",
        "latitude": "75.72204",
        "longitude": "-82.138477",
        "buildings": [
          {
            "_id": "57566",
            "address": "265 Sutton Street, Kraemer, Arkansas, 6949",
            "phone": "+1 (810) 582-2703",
            "name": "Grok",
            "propertyId": "23654",
            "state": "Washington",
            "latitude": "70.024897",
            "longitude": "120.241192"
          },
          {
            "_id": "61446",
            "address": "378 Kingsway Place, Glendale, New Jersey, 8611",
            "phone": "+1 (843) 569-2796",
            "name": "Cablam",
            "propertyId": "23654",
            "state": "Mississippi",
            "latitude": "-10.081205",
            "longitude": "128.240725"
          },
          {
            "_id": "81243",
            "address": "254 Times Placez, Camptown, California, 5826",
            "phone": "+1 (881) 498-3797",
            "name": "Inquala",
            "propertyId": "23654",
            "state": "Rhode Island",
            "latitude": "71.723107",
            "longitude": "72.638518"
          },
          {
            "_id": "30048",
            "address": "815 Herbert Street, Bradenville, West Virginia, 7550",
            "phone": "+1 (959) 423-2260",
            "name": "Jetsilk",
            "propertyId": "23654",
            "state": "Montana",
            "latitude": "-50.849508",
            "longitude": "-169.258933"
          },
          {
            "_id": "27884",
            "address": "741 Pierrepont Place, Suitland, Guam, 7059",
            "phone": "+1 (987) 415-3081",
            "name": "Isologics",
            "propertyId": "23654",
            "state": "Maine",
            "latitude": "1.983235",
            "longitude": "92.786201"
          },
          {
            "_id": "96465",
            "address": "144 Garden Place, Edneyville, Delaware, 4317",
            "phone": "+1 (911) 581-2407",
            "name": "Reversus",
            "propertyId": "23654",
            "state": "Vermont",
            "latitude": "3.337176",
            "longitude": "52.124526"
          },
          {
            "_id": "22218",
            "address": "855 Irvington Place, Delwood, Puerto Rico, 1887",
            "phone": "+1 (842) 406-3190",
            "name": "Mixers",
            "propertyId": "23654",
            "state": "American Samoa",
            "latitude": "77.898464",
            "longitude": "35.105446"
          },
          {
            "_id": "35878",
            "address": "631 Oceanview Avenue, Crayne, Ohio, 4087",
            "phone": "+1 (947) 531-3338",
            "name": "Firewax",
            "propertyId": "23654",
            "state": "Virginia",
            "latitude": "13.281441",
            "longitude": "124.674749"
          }
        ]
      },
      {
        "_id": "06391",
        "address": "813 Beverley Road, Lithium, Texas, 4010",
        "phone": "+1 (939) 539-3287",
        "name": "Zolarity",
        "tennantId": "33609",
        "state": "Palau",
        "latitude": "24.200897",
        "longitude": "170.907119",
        "buildings": [
          {
            "_id": "51010",
            "address": "541 Ide Court, Rockbridge, Tennessee, 3329",
            "phone": "+1 (806) 545-3814",
            "name": "Locazone",
            "propertyId": "06391",
            "state": "Marshall Islands",
            "latitude": "51.032257",
            "longitude": "-95.869547"
          },
          {
            "_id": "47251",
            "address": "969 Dooley Street, Valle, Northern Mariana Islands, 4575",
            "phone": "+1 (875) 582-2510",
            "name": "Comvey",
            "propertyId": "06391",
            "state": "Hawaii",
            "latitude": "-65.551067",
            "longitude": "156.323412"
          },
          {
            "_id": "38813",
            "address": "470 Gerry Street, Sunbury, District Of Columbia, 2595",
            "phone": "+1 (985) 551-2457",
            "name": "Buzzworks",
            "propertyId": "06391",
            "state": "Alaska",
            "latitude": "-0.937397",
            "longitude": "-62.0417"
          },
          {
            "_id": "00380",
            "address": "608 Harman Street, Umapine, South Dakota, 7935",
            "phone": "+1 (935) 475-3359",
            "name": "Danja",
            "propertyId": "06391",
            "state": "Massachusetts",
            "latitude": "26.026288",
            "longitude": "174.479381"
          },
          {
            "_id": "81789",
            "address": "590 Joval Court, Beechmont, Utah, 2177",
            "phone": "+1 (974) 424-2533",
            "name": "Eventage",
            "propertyId": "06391",
            "state": "New Mexico",
            "latitude": "-8.72606",
            "longitude": "-58.71037"
          }
        ]
      },
      {
        "_id": "72150",
        "address": "689 Logan Street, Toftrees, Wisconsin, 4737",
        "phone": "+1 (826) 530-2671",
        "name": "Centuria",
        "tennantId": "33609",
        "state": "Missouri",
        "latitude": "-85.08491",
        "longitude": "160.05936",
        "buildings": [
          {
            "_id": "33038",
            "address": "662 Benson Avenue, Strong, Kentucky, 532",
            "phone": "+1 (946) 516-2861",
            "name": "Skyplex",
            "propertyId": "72150",
            "state": "New Hampshire",
            "latitude": "70.107504",
            "longitude": "61.594492"
          },
          {
            "_id": "72590",
            "address": "459 Preston Court, Interlochen, North Dakota, 9271",
            "phone": "+1 (854) 536-2476",
            "name": "Waterbaby",
            "propertyId": "72150",
            "state": "Iowa",
            "latitude": "-27.421479",
            "longitude": "-12.354444"
          },
          {
            "_id": "54152",
            "address": "426 Billings Place, Jardine, Georgia, 8939",
            "phone": "+1 (854) 420-2304",
            "name": "Asimiline",
            "propertyId": "72150",
            "state": "Virgin Islands",
            "latitude": "43.57013",
            "longitude": "61.372394"
          },
          {
            "_id": "06301",
            "address": "112 Clay Street, Bison, Nebraska, 7566",
            "phone": "+1 (957) 433-3417",
            "name": "Comstar",
            "propertyId": "72150",
            "state": "Oregon",
            "latitude": "17.758827",
            "longitude": "140.537657"
          },
          {
            "_id": "33015",
            "address": "327 Huntington Street, Innsbrook, Oklahoma, 9932",
            "phone": "+1 (970) 404-3112",
            "name": "Kaggle",
            "propertyId": "72150",
            "state": "Federated States Of Micronesia",
            "latitude": "69.01347",
            "longitude": "-58.327978"
          },
          {
            "_id": "62113",
            "address": "801 Aster Court, Kansas, Arizona, 4459",
            "phone": "+1 (951) 419-2357",
            "name": "Anacho",
            "propertyId": "72150",
            "state": "Indiana",
            "latitude": "-41.271834",
            "longitude": "-172.746031"
          },
          {
            "_id": "53166",
            "address": "177 Buffalo Avenue, Enetai, Connecticut, 5335",
            "phone": "+1 (972) 539-3976",
            "name": "Eplode",
            "propertyId": "72150",
            "state": "Florida",
            "latitude": "20.552744",
            "longitude": "129.551862"
          },
          {
            "_id": "29762",
            "address": "969 Louisa Street, Brambleton, Colorado, 4772",
            "phone": "+1 (904) 556-3496",
            "name": "Talendula",
            "propertyId": "72150",
            "state": "Maryland",
            "latitude": "-52.303654",
            "longitude": "-179.358674"
          },
          {
            "_id": "47218",
            "address": "485 Gates Avenue, Galesville, Alabama, 8762",
            "phone": "+1 (857) 598-3885",
            "name": "Straloy",
            "propertyId": "72150",
            "state": "Kansas",
            "latitude": "-63.96195",
            "longitude": "-164.370802"
          }
        ]
      },
      {
        "_id": "97057",
        "address": "524 Williams Place, Lawrence, Arkansas, 2302",
        "phone": "+1 (883) 579-2724",
        "name": "Biotica",
        "tennantId": "33609",
        "state": "Washington",
        "latitude": "-88.434687",
        "longitude": "-0.498406",
        "buildings": [
          {
            "_id": "60745",
            "address": "257 Clinton Avenue, Gratton, New Jersey, 5068",
            "phone": "+1 (913) 560-3831",
            "name": "Pholio",
            "propertyId": "97057",
            "state": "Mississippi",
            "latitude": "-53.897828",
            "longitude": "-9.77251"
          },
          {
            "_id": "77260",
            "address": "422 Stockton Street, Smock, California, 2380",
            "phone": "+1 (800) 557-2008",
            "name": "Netur",
            "propertyId": "97057",
            "state": "Rhode Island",
            "latitude": "28.708642",
            "longitude": "-157.787923"
          },
          {
            "_id": "05127",
            "address": "499 Jamaica Avenue, Vale, West Virginia, 482",
            "phone": "+1 (835) 585-3764",
            "name": "Edecine",
            "propertyId": "97057",
            "state": "Montana",
            "latitude": "-70.955305",
            "longitude": "-177.128709"
          },
          {
            "_id": "02313",
            "address": "864 Balfour Place, Dale, Guam, 4721",
            "phone": "+1 (877) 484-3748",
            "name": "Cedward",
            "propertyId": "97057",
            "state": "Maine",
            "latitude": "-85.535284",
            "longitude": "142.851583"
          },
          {
            "_id": "94088",
            "address": "280 Winthrop Street, Tyro, Delaware, 9063",
            "phone": "+1 (830) 537-2695",
            "name": "Portica",
            "propertyId": "97057",
            "state": "Vermont",
            "latitude": "54.157867",
            "longitude": "55.95609"
          },
          {
            "_id": "95380",
            "address": "252 Hudson Avenue, Smeltertown, Puerto Rico, 5612",
            "phone": "+1 (895) 552-3159",
            "name": "Photobin",
            "propertyId": "97057",
            "state": "American Samoa",
            "latitude": "-48.932406",
            "longitude": "-168.121053"
          }
        ]
      },
      {
        "_id": "87999",
        "address": "534 Jay Street, Bowden, Tennessee, 2689",
        "phone": "+1 (917) 577-3007",
        "name": "Accruex",
        "tennantId": "33609",
        "state": "Marshall Islands",
        "latitude": "-69.231759",
        "longitude": "53.926544",
        "buildings": [
          {
            "_id": "66545",
            "address": "657 Dorset Street, Sheatown, Northern Mariana Islands, 4814",
            "phone": "+1 (844) 434-3835",
            "name": "Zillactic",
            "propertyId": "87999",
            "state": "Hawaii",
            "latitude": "-37.084009",
            "longitude": "-49.66496"
          },
          {
            "_id": "79159",
            "address": "364 Lincoln Avenue, Ivanhoe, District Of Columbia, 7991",
            "phone": "+1 (919) 493-3738",
            "name": "Zillidium",
            "propertyId": "87999",
            "state": "Alaska",
            "latitude": "-22.158694",
            "longitude": "-142.732183"
          },
          {
            "_id": "08473",
            "address": "447 Rutland Road, Baker, South Dakota, 5923",
            "phone": "+1 (895) 559-2369",
            "name": "Dogtown",
            "propertyId": "87999",
            "state": "Massachusetts",
            "latitude": "15.143009",
            "longitude": "70.902921"
          },
          {
            "_id": "50226",
            "address": "753 Turnbull Avenue, Jenkinsville, Utah, 4856",
            "phone": "+1 (961) 448-2999",
            "name": "Duflex",
            "propertyId": "87999",
            "state": "New Mexico",
            "latitude": "71.038179",
            "longitude": "-173.231809"
          },
          {
            "_id": "66337",
            "address": "183 Hunts Lane, Chapin, Michigan, 3033",
            "phone": "+1 (870) 422-3104",
            "name": "Accufarm",
            "propertyId": "87999",
            "state": "North Carolina",
            "latitude": "11.63172",
            "longitude": "60.65341"
          },
          {
            "_id": "45163",
            "address": "289 Veterans Avenue, Iola, Wyoming, 5594",
            "phone": "+1 (993) 480-2250",
            "name": "Netility",
            "propertyId": "87999",
            "state": "Pennsylvania",
            "latitude": "55.062561",
            "longitude": "-146.411428"
          },
          {
            "_id": "47267",
            "address": "546 Willoughby Street, Zeba, New York, 7549",
            "phone": "+1 (907) 590-2323",
            "name": "Sensate",
            "propertyId": "87999",
            "state": "Minnesota",
            "latitude": "-21.240439",
            "longitude": "-31.477558"
          },
          {
            "_id": "80104",
            "address": "424 Cove Lane, Biddle, Louisiana, 2964",
            "phone": "+1 (885) 422-2347",
            "name": "Maroptic",
            "propertyId": "87999",
            "state": "South Carolina",
            "latitude": "17.838282",
            "longitude": "-64.648801"
          }
        ]
      },
      {
        "_id": "37654",
        "address": "760 Ocean Parkway, Harviell, Kentucky, 1672",
        "phone": "+1 (884) 429-2762",
        "name": "Dancerity",
        "tennantId": "33609",
        "state": "New Hampshire",
        "latitude": "-14.388438",
        "longitude": "-27.031164",
        "buildings": [
          {
            "_id": "12061",
            "address": "601 Stockholm Street, Collins, North Dakota, 3259",
            "phone": "+1 (901) 582-2906",
            "name": "Avit",
            "propertyId": "37654",
            "state": "Iowa",
            "latitude": "36.51354",
            "longitude": "172.231119"
          },
          {
            "_id": "08190",
            "address": "552 Veranda Place, Bonanza, Georgia, 1183",
            "phone": "+1 (828) 557-2470",
            "name": "Volax",
            "propertyId": "37654",
            "state": "Virgin Islands",
            "latitude": "-5.174743",
            "longitude": "-178.08291"
          },
          {
            "_id": "16389",
            "address": "535 Albany Avenue, Boling, Nebraska, 4184",
            "phone": "+1 (857) 457-3116",
            "name": "Magnemo",
            "propertyId": "37654",
            "state": "Oregon",
            "latitude": "-29.735965",
            "longitude": "-16.6852"
          },
          {
            "_id": "78780",
            "address": "152 Kane Street, Reno, Oklahoma, 5368",
            "phone": "+1 (987) 554-3613",
            "name": "Macronaut",
            "propertyId": "37654",
            "state": "Federated States Of Micronesia",
            "latitude": "-82.942187",
            "longitude": "-144.145508"
          },
          {
            "_id": "80042",
            "address": "430 Stratford Road, Wattsville, Arizona, 1776",
            "phone": "+1 (865) 582-3347",
            "name": "Waab",
            "propertyId": "37654",
            "state": "Indiana",
            "latitude": "-57.09988",
            "longitude": "9.821483"
          },
          {
            "_id": "35374",
            "address": "286 Jerome Street, Moraida, Connecticut, 2910",
            "phone": "+1 (824) 550-2249",
            "name": "Olucore",
            "propertyId": "37654",
            "state": "Florida",
            "latitude": "88.923503",
            "longitude": "152.907316"
          },
          {
            "_id": "35936",
            "address": "409 Highland Boulevard, Terlingua, Colorado, 5206",
            "phone": "+1 (999) 485-3853",
            "name": "Vitricomp",
            "propertyId": "37654",
            "state": "Maryland",
            "latitude": "-58.334202",
            "longitude": "37.057439"
          },
          {
            "_id": "14657",
            "address": "116 Carroll Street, Cumminsville, Alabama, 7133",
            "phone": "+1 (943) 522-2766",
            "name": "Sloganaut",
            "propertyId": "37654",
            "state": "Kansas",
            "latitude": "33.836718",
            "longitude": "59.540206"
          }
        ]
      },
      {
        "_id": "98759",
        "address": "959 Roosevelt Place, Belleview, New Jersey, 6755",
        "phone": "+1 (952) 465-2966",
        "name": "Zanity",
        "tennantId": "33609",
        "state": "Mississippi",
        "latitude": "73.492315",
        "longitude": "172.919149",
        "buildings": [
          {
            "_id": "41061",
            "address": "444 Amity Street, Sultana, California, 8444",
            "phone": "+1 (843) 568-2711",
            "name": "Qiao",
            "propertyId": "98759",
            "state": "Rhode Island",
            "latitude": "-67.748445",
            "longitude": "-143.352433"
          },
          {
            "_id": "37217",
            "address": "551 Franklin Street, Reinerton, West Virginia, 3699",
            "phone": "+1 (829) 538-3346",
            "name": "Geekfarm",
            "propertyId": "98759",
            "state": "Montana",
            "latitude": "-7.163933",
            "longitude": "-12.235537"
          },
          {
            "_id": "79816",
            "address": "808 Garfield Place, Vincent, Guam, 3554",
            "phone": "+1 (859) 578-2482",
            "name": "Inventure",
            "propertyId": "98759",
            "state": "Maine",
            "latitude": "33.470917",
            "longitude": "-139.134697"
          },
          {
            "_id": "29706",
            "address": "859 Hoyt Street, Alleghenyville, Delaware, 8786",
            "phone": "+1 (985) 550-3355",
            "name": "Zensus",
            "propertyId": "98759",
            "state": "Vermont",
            "latitude": "22.086886",
            "longitude": "-154.892259"
          },
          {
            "_id": "03968",
            "address": "600 Duffield Street, Castleton, Puerto Rico, 1808",
            "phone": "+1 (973) 459-2997",
            "name": "Zilencio",
            "propertyId": "98759",
            "state": "American Samoa",
            "latitude": "-44.057803",
            "longitude": "-113.903934"
          },
          {
            "_id": "57230",
            "address": "906 Rock Street, Manchester, Ohio, 596",
            "phone": "+1 (928) 542-3406",
            "name": "Webiotic",
            "propertyId": "98759",
            "state": "Virginia",
            "latitude": "48.950306",
            "longitude": "114.913213"
          },
          {
            "_id": "74923",
            "address": "129 Harbor Lane, Austinburg, Illinois, 8622",
            "phone": "+1 (842) 453-2445",
            "name": "Orbixtar",
            "propertyId": "98759",
            "state": "Idaho",
            "latitude": "-62.022396",
            "longitude": "2.753256"
          },
          {
            "_id": "54638",
            "address": "758 Saratoga Avenue, Dunnavant, Texas, 6450",
            "phone": "+1 (815) 402-2568",
            "name": "Qualitex",
            "propertyId": "98759",
            "state": "Palau",
            "latitude": "46.170309",
            "longitude": "-160.012824"
          }
        ]
      }
    ]
  },
  {
    "_id": "06594",
    "isActive": false,
    "logo": "images/8.jpg",
    "picture": "https://placeholder.com/wp-content/uploads/2018/10/placeholder.com-logo3.jpg",
    "name": "TECHTRIX",
    "phone": "+1 (846) 593-3735",
    "address": "619 Grand Street, Kirk, North Dakota, 1896",
    "email": "techtrix@techtrix.biz",
    "properties": [
      {
        "_id": "84958",
        "address": "386 Noel Avenue, Glasgow, Iowa, 3514",
        "phone": "+1 (813) 435-3813",
        "name": "Injoy",
        "tennantId": "06594",
        "state": "Georgia",
        "latitude": "-12.168632",
        "longitude": "4.93402",
        "buildings": [
          {
            "_id": "39199",
            "address": "450 Monaco Place, Websterville, Virgin Islands, 7781",
            "phone": "+1 (883) 454-3233",
            "name": "Newcube",
            "propertyId": "84958",
            "state": "Nebraska",
            "latitude": "25.6281",
            "longitude": "-109.602933"
          },
          {
            "_id": "76880",
            "address": "971 Powell Street, Sims, Oregon, 4901",
            "phone": "+1 (896) 554-3918",
            "name": "Enersol",
            "propertyId": "84958",
            "state": "Oklahoma",
            "latitude": "-9.013435",
            "longitude": "-73.989982"
          },
          {
            "_id": "49197",
            "address": "157 Hornell Loop, Kersey, Federated States Of Micronesia, 4911",
            "phone": "+1 (931) 452-3312",
            "name": "Paprikut",
            "propertyId": "84958",
            "state": "Arizona",
            "latitude": "87.960188",
            "longitude": "-2.703892"
          },
          {
            "_id": "96605",
            "address": "301 Claver Place, Templeton, Indiana, 9677",
            "phone": "+1 (939) 585-3642",
            "name": "Intergeek",
            "propertyId": "84958",
            "state": "Connecticut",
            "latitude": "23.338397",
            "longitude": "108.170909"
          },
          {
            "_id": "46582",
            "address": "963 Henry Street, Lorraine, Florida, 1329",
            "phone": "+1 (968) 448-2411",
            "name": "Ovation",
            "propertyId": "84958",
            "state": "Colorado",
            "latitude": "-87.128057",
            "longitude": "74.15685"
          },
          {
            "_id": "76945",
            "address": "227 Canal Avenue, Edgar, Maryland, 5432",
            "phone": "+1 (984) 532-3479",
            "name": "Harmoney",
            "propertyId": "84958",
            "state": "Alabama",
            "latitude": "19.711163",
            "longitude": "-77.646971"
          },
          {
            "_id": "37938",
            "address": "248 McKibbin Street, Chelsea, Kansas, 1823",
            "phone": "+1 (990) 422-3221",
            "name": "Zilladyne",
            "propertyId": "84958",
            "state": "Arkansas",
            "latitude": "82.498097",
            "longitude": "3.718252"
          }
        ]
      },
      {
        "_id": "67755",
        "address": "969 Adelphi Street, Bartley, Rhode Island, 8744",
        "phone": "+1 (978) 408-3474",
        "name": "Typhonica",
        "tennantId": "06594",
        "state": "West Virginia",
        "latitude": "-37.817545",
        "longitude": "-53.926588",
        "buildings": [
          {
            "_id": "12418",
            "address": "400 Village Court, Bladensburg, Montana, 4813",
            "phone": "+1 (999) 521-3636",
            "name": "Strezzo",
            "propertyId": "67755",
            "state": "Guam",
            "latitude": "-14.633382",
            "longitude": "162.96329"
          },
          {
            "_id": "23706",
            "address": "880 Kosciusko Street, Darlington, Maine, 558",
            "phone": "+1 (841) 599-3772",
            "name": "Applideck",
            "propertyId": "67755",
            "state": "Delaware",
            "latitude": "-76.050893",
            "longitude": "-127.623582"
          },
          {
            "_id": "21960",
            "address": "674 Newkirk Avenue, Tilleda, Vermont, 2787",
            "phone": "+1 (985) 471-2462",
            "name": "Flumbo",
            "propertyId": "67755",
            "state": "Puerto Rico",
            "latitude": "-86.019764",
            "longitude": "-156.651894"
          },
          {
            "_id": "73881",
            "address": "641 Kiely Place, Rockhill, American Samoa, 5857",
            "phone": "+1 (985) 403-3846",
            "name": "Sustenza",
            "propertyId": "67755",
            "state": "Ohio",
            "latitude": "3.525748",
            "longitude": "-142.46526"
          },
          {
            "_id": "84286",
            "address": "799 Harrison Avenue, Enlow, Virginia, 7448",
            "phone": "+1 (870) 420-2398",
            "name": "Recrisys",
            "propertyId": "67755",
            "state": "Illinois",
            "latitude": "-73.488798",
            "longitude": "14.368188"
          },
          {
            "_id": "30649",
            "address": "642 Hart Place, Disautel, Idaho, 6843",
            "phone": "+1 (907) 469-2990",
            "name": "Exiand",
            "propertyId": "67755",
            "state": "Texas",
            "latitude": "62.167532",
            "longitude": "-142.519434"
          },
          {
            "_id": "13610",
            "address": "696 Harwood Place, Summerfield, Palau, 9459",
            "phone": "+1 (811) 532-3108",
            "name": "Quotezart",
            "propertyId": "67755",
            "state": "Tennessee",
            "latitude": "-37.492961",
            "longitude": "91.545204"
          },
          {
            "_id": "11183",
            "address": "291 Ditmas Avenue, Kerby, Marshall Islands, 8750",
            "phone": "+1 (978) 557-3553",
            "name": "Wazzu",
            "propertyId": "67755",
            "state": "Northern Mariana Islands",
            "latitude": "69.355999",
            "longitude": "-37.475811"
          },
          {
            "_id": "58095",
            "address": "242 Schenck Court, Retsof, Hawaii, 1523",
            "phone": "+1 (825) 481-2305",
            "name": "Endicil",
            "propertyId": "67755",
            "state": "District Of Columbia",
            "latitude": "33.014597",
            "longitude": "37.489433"
          }
        ]
      },
      {
        "_id": "93276",
        "address": "849 Portland Avenue, Nescatunga, Alaska, 6967",
        "phone": "+1 (865) 580-2993",
        "name": "Lyria",
        "tennantId": "06594",
        "state": "South Dakota",
        "latitude": "-21.53241",
        "longitude": "15.651852",
        "buildings": [
          {
            "_id": "66915",
            "address": "221 Taylor Street, Dexter, Massachusetts, 4349",
            "phone": "+1 (856) 415-2500",
            "name": "Miracula",
            "propertyId": "93276",
            "state": "Utah",
            "latitude": "43.397291",
            "longitude": "2.991354"
          },
          {
            "_id": "03606",
            "address": "150 Myrtle Avenue, Chumuckla, New Mexico, 4356",
            "phone": "+1 (944) 523-3834",
            "name": "Xeronk",
            "propertyId": "93276",
            "state": "Michigan",
            "latitude": "48.619024",
            "longitude": "49.650145"
          },
          {
            "_id": "47156",
            "address": "508 Newel Street, Avoca, North Carolina, 3369",
            "phone": "+1 (922) 540-2938",
            "name": "Translink",
            "propertyId": "93276",
            "state": "Wyoming",
            "latitude": "0.078251",
            "longitude": "171.005608"
          },
          {
            "_id": "40538",
            "address": "254 Narrows Avenue, Juntura, Pennsylvania, 9915",
            "phone": "+1 (805) 548-2216",
            "name": "Imperium",
            "propertyId": "93276",
            "state": "New York",
            "latitude": "72.509913",
            "longitude": "-50.709029"
          },
          {
            "_id": "13510",
            "address": "947 Plaza Street, Coalmont, Minnesota, 2560",
            "phone": "+1 (812) 433-2380",
            "name": "Affluex",
            "propertyId": "93276",
            "state": "Louisiana",
            "latitude": "-69.804311",
            "longitude": "-178.269447"
          }
        ]
      },
      {
        "_id": "80526",
        "address": "353 Albemarle Terrace, Dennard, Virgin Islands, 8824",
        "phone": "+1 (898) 548-3224",
        "name": "Unisure",
        "tennantId": "06594",
        "state": "Nebraska",
        "latitude": "-62.80663",
        "longitude": "-63.130575",
        "buildings": [
          {
            "_id": "53067",
            "address": "830 Fountain Avenue, Shaft, Oregon, 6058",
            "phone": "+1 (972) 470-2545",
            "name": "Steelfab",
            "propertyId": "80526",
            "state": "Oklahoma",
            "latitude": "-21.070041",
            "longitude": "-125.399678"
          },
          {
            "_id": "82549",
            "address": "423 Argyle Road, Gracey, Federated States Of Micronesia, 9346",
            "phone": "+1 (886) 592-3914",
            "name": "Radiantix",
            "propertyId": "80526",
            "state": "Arizona",
            "latitude": "-72.373595",
            "longitude": "13.746498"
          },
          {
            "_id": "94444",
            "address": "124 Bouck Court, Cumberland, Indiana, 7596",
            "phone": "+1 (998) 476-3798",
            "name": "Telpod",
            "propertyId": "80526",
            "state": "Connecticut",
            "latitude": "68.762788",
            "longitude": "-88.171421"
          },
          {
            "_id": "65607",
            "address": "358 Glendale Court, Alfarata, Florida, 5386",
            "phone": "+1 (976) 544-3813",
            "name": "Letpro",
            "propertyId": "80526",
            "state": "Colorado",
            "latitude": "-19.955948",
            "longitude": "-136.793387"
          },
          {
            "_id": "22106",
            "address": "791 Vine Street, Rowe, Maryland, 6045",
            "phone": "+1 (853) 588-2174",
            "name": "Xixan",
            "propertyId": "80526",
            "state": "Alabama",
            "latitude": "-3.280772",
            "longitude": "-4.104589"
          }
        ]
      },
      {
        "_id": "00385",
        "address": "337 Liberty Avenue, Bowie, Montana, 3172",
        "phone": "+1 (943) 547-3891",
        "name": "Songlines",
        "tennantId": "06594",
        "state": "Guam",
        "latitude": "-62.058593",
        "longitude": "40.355294",
        "buildings": [
          {
            "_id": "58287",
            "address": "862 Bevy Court, Fairview, Maine, 2271",
            "phone": "+1 (923) 479-3132",
            "name": "Zomboid",
            "propertyId": "00385",
            "state": "Delaware",
            "latitude": "-43.093101",
            "longitude": "-61.619816"
          },
          {
            "_id": "52743",
            "address": "910 Livingston Street, Homeland, Vermont, 2681",
            "phone": "+1 (888) 566-3837",
            "name": "Tsunamia",
            "propertyId": "00385",
            "state": "Puerto Rico",
            "latitude": "46.638651",
            "longitude": "166.542608"
          },
          {
            "_id": "55524",
            "address": "873 Lynch Street, Hollins, American Samoa, 6796",
            "phone": "+1 (902) 539-3018",
            "name": "Dogspa",
            "propertyId": "00385",
            "state": "Ohio",
            "latitude": "11.807905",
            "longitude": "124.579844"
          },
          {
            "_id": "05492",
            "address": "914 Cobek Court, Genoa, Virginia, 3703",
            "phone": "+1 (852) 442-3957",
            "name": "Idego",
            "propertyId": "00385",
            "state": "Illinois",
            "latitude": "-1.858071",
            "longitude": "171.920827"
          },
          {
            "_id": "52068",
            "address": "225 Concord Street, Bourg, Idaho, 6498",
            "phone": "+1 (883) 418-3037",
            "name": "Plexia",
            "propertyId": "00385",
            "state": "Texas",
            "latitude": "-30.711114",
            "longitude": "-21.220647"
          },
          {
            "_id": "41874",
            "address": "533 Ellery Street, Irwin, Palau, 7100",
            "phone": "+1 (850) 568-3981",
            "name": "Viagrand",
            "propertyId": "00385",
            "state": "Tennessee",
            "latitude": "28.898532",
            "longitude": "60.400186"
          },
          {
            "_id": "72157",
            "address": "562 Lee Avenue, Clara, Marshall Islands, 2154",
            "phone": "+1 (859) 434-2607",
            "name": "Enthaze",
            "propertyId": "00385",
            "state": "Northern Mariana Islands",
            "latitude": "-82.600229",
            "longitude": "165.250009"
          },
          {
            "_id": "86253",
            "address": "659 Highland Place, Babb, Hawaii, 7875",
            "phone": "+1 (887) 421-2121",
            "name": "Martgo",
            "propertyId": "00385",
            "state": "District Of Columbia",
            "latitude": "24.93996",
            "longitude": "-25.039604"
          },
          {
            "_id": "88297",
            "address": "853 Minna Street, Oceola, Alaska, 577",
            "phone": "+1 (891) 573-3845",
            "name": "Vidto",
            "propertyId": "00385",
            "state": "South Dakota",
            "latitude": "-54.381753",
            "longitude": "162.723684"
          }
        ]
      },
      {
        "_id": "35911",
        "address": "564 Evans Street, Gambrills, Massachusetts, 7024",
        "phone": "+1 (923) 590-2803",
        "name": "Quintity",
        "tennantId": "06594",
        "state": "Utah",
        "latitude": "-79.305039",
        "longitude": "174.311683",
        "buildings": [
          {
            "_id": "78222",
            "address": "638 Clifton Place, Eastmont, New Mexico, 8558",
            "phone": "+1 (829) 594-2692",
            "name": "Fibrodyne",
            "propertyId": "35911",
            "state": "Michigan",
            "latitude": "84.293494",
            "longitude": "119.936966"
          },
          {
            "_id": "76657",
            "address": "129 Vanderveer Street, Allentown, North Carolina, 1338",
            "phone": "+1 (924) 536-3844",
            "name": "Pearlesex",
            "propertyId": "35911",
            "state": "Wyoming",
            "latitude": "77.156514",
            "longitude": "-49.290593"
          },
          {
            "_id": "24952",
            "address": "828 Summit Street, Roeville, Pennsylvania, 7730",
            "phone": "+1 (818) 405-3427",
            "name": "Memora",
            "propertyId": "35911",
            "state": "New York",
            "latitude": "51.340066",
            "longitude": "14.312189"
          },
          {
            "_id": "03737",
            "address": "536 Doughty Street, Bancroft, Minnesota, 1958",
            "phone": "+1 (855) 408-2889",
            "name": "Ecolight",
            "propertyId": "35911",
            "state": "Louisiana",
            "latitude": "-44.345526",
            "longitude": "1.103148"
          },
          {
            "_id": "69270",
            "address": "586 Fenimore Street, Nicholson, South Carolina, 1268",
            "phone": "+1 (833) 424-3813",
            "name": "Solgan",
            "propertyId": "35911",
            "state": "Wisconsin",
            "latitude": "78.35693",
            "longitude": "69.997448"
          }
        ]
      },
      {
        "_id": "74978",
        "address": "868 Bridge Street, Bennett, Oregon, 8576",
        "phone": "+1 (961) 484-3692",
        "name": "Soprano",
        "tennantId": "06594",
        "state": "Oklahoma",
        "latitude": "-33.962638",
        "longitude": "-56.371656",
        "buildings": [
          {
            "_id": "97869",
            "address": "666 Harrison Place, Chicopee, Federated States Of Micronesia, 2967",
            "phone": "+1 (989) 600-2677",
            "name": "Exozent",
            "propertyId": "74978",
            "state": "Arizona",
            "latitude": "29.355629",
            "longitude": "-66.111411"
          },
          {
            "_id": "11896",
            "address": "800 Front Street, Hickory, Indiana, 1112",
            "phone": "+1 (865) 548-2265",
            "name": "Turnling",
            "propertyId": "74978",
            "state": "Connecticut",
            "latitude": "37.922774",
            "longitude": "-9.336374"
          },
          {
            "_id": "76792",
            "address": "195 Flatbush Avenue, Magnolia, Florida, 9080",
            "phone": "+1 (869) 517-3513",
            "name": "Gology",
            "propertyId": "74978",
            "state": "Colorado",
            "latitude": "82.32991",
            "longitude": "174.98687"
          },
          {
            "_id": "64283",
            "address": "585 Railroad Avenue, Munjor, Maryland, 4076",
            "phone": "+1 (844) 561-2329",
            "name": "Apextri",
            "propertyId": "74978",
            "state": "Alabama",
            "latitude": "41.545175",
            "longitude": "35.939272"
          },
          {
            "_id": "90530",
            "address": "904 Hope Street, Hackneyville, Kansas, 7007",
            "phone": "+1 (825) 598-3437",
            "name": "Protodyne",
            "propertyId": "74978",
            "state": "Arkansas",
            "latitude": "-89.629901",
            "longitude": "-179.049372"
          },
          {
            "_id": "75305",
            "address": "848 Bassett Avenue, Epworth, Washington, 3969",
            "phone": "+1 (811) 469-3576",
            "name": "Comtour",
            "propertyId": "74978",
            "state": "New Jersey",
            "latitude": "88.267358",
            "longitude": "162.077337"
          },
          {
            "_id": "59076",
            "address": "698 Knapp Street, Bedias, Mississippi, 7717",
            "phone": "+1 (831) 579-2019",
            "name": "Metroz",
            "propertyId": "74978",
            "state": "California",
            "latitude": "82.433669",
            "longitude": "-120.522958"
          }
        ]
      },
      {
        "_id": "71922",
        "address": "572 Caton Avenue, Libertytown, Maine, 3646",
        "phone": "+1 (853) 403-3291",
        "name": "Qualitern",
        "tennantId": "06594",
        "state": "Delaware",
        "latitude": "67.948465",
        "longitude": "176.48754",
        "buildings": [
          {
            "_id": "54818",
            "address": "642 Wortman Avenue, Stevens, Vermont, 4986",
            "phone": "+1 (802) 570-2261",
            "name": "Ultrasure",
            "propertyId": "71922",
            "state": "Puerto Rico",
            "latitude": "-83.161893",
            "longitude": "-49.981365"
          },
          {
            "_id": "75455",
            "address": "363 Debevoise Street, Hartsville/Hartley, American Samoa, 4575",
            "phone": "+1 (874) 471-3888",
            "name": "Daido",
            "propertyId": "71922",
            "state": "Ohio",
            "latitude": "-29.951934",
            "longitude": "-142.125115"
          },
          {
            "_id": "90794",
            "address": "313 Bartlett Street, Crucible, Virginia, 3245",
            "phone": "+1 (848) 480-2012",
            "name": "Pigzart",
            "propertyId": "71922",
            "state": "Illinois",
            "latitude": "75.863559",
            "longitude": "16.503364"
          },
          {
            "_id": "89675",
            "address": "271 Post Court, Eggertsville, Idaho, 7744",
            "phone": "+1 (958) 568-2036",
            "name": "Zillanet",
            "propertyId": "71922",
            "state": "Texas",
            "latitude": "45.53346",
            "longitude": "-61.949072"
          },
          {
            "_id": "70620",
            "address": "619 Porter Avenue, Woodlands, Palau, 9571",
            "phone": "+1 (969) 469-2987",
            "name": "Ersum",
            "propertyId": "71922",
            "state": "Tennessee",
            "latitude": "75.45277",
            "longitude": "-64.853805"
          },
          {
            "_id": "90150",
            "address": "269 Bleecker Street, Ladera, Marshall Islands, 4304",
            "phone": "+1 (978) 476-3659",
            "name": "Parcoe",
            "propertyId": "71922",
            "state": "Northern Mariana Islands",
            "latitude": "75.128435",
            "longitude": "-69.240448"
          }
        ]
      }
    ]
  },
  {
    "_id": "46075",
    "isActive": true,
    "logo": "images/9.jpg",
    "picture": "https://placeholder.com/wp-content/uploads/2018/10/placeholder.com-logo3.jpg",
    "name": "PYRAMIA",
    "phone": "+1 (839) 474-3487",
    "address": "689 Applegate Court, Ironton, Federated States Of Micronesia, 3426",
    "email": "pyramia@pyramia.us",
    "properties": [
      {
        "_id": "60804",
        "address": "937 Louisiana Avenue, Matthews, Arizona, 2874",
        "phone": "+1 (898) 535-3864",
        "name": "Glukgluk",
        "tennantId": "46075",
        "state": "Indiana",
        "latitude": "81.433168",
        "longitude": "141.001286",
        "buildings": [
          {
            "_id": "34615",
            "address": "688 Union Avenue, Welda, Connecticut, 5880",
            "phone": "+1 (823) 475-3108",
            "name": "Netagy",
            "propertyId": "60804",
            "state": "Florida",
            "latitude": "9.060704",
            "longitude": "-1.304334"
          },
          {
            "_id": "95335",
            "address": "863 Brighton Avenue, Cherokee, Colorado, 3755",
            "phone": "+1 (959) 435-2693",
            "name": "Diginetic",
            "propertyId": "60804",
            "state": "Maryland",
            "latitude": "45.178303",
            "longitude": "115.23564"
          },
          {
            "_id": "86256",
            "address": "711 Forrest Street, Coultervillle, Alabama, 1618",
            "phone": "+1 (872) 415-3780",
            "name": "Elita",
            "propertyId": "60804",
            "state": "Kansas",
            "latitude": "-14.164019",
            "longitude": "-163.104944"
          },
          {
            "_id": "37109",
            "address": "394 Ford Street, Williams, Arkansas, 1004",
            "phone": "+1 (890) 479-3419",
            "name": "Zytrax",
            "propertyId": "60804",
            "state": "Washington",
            "latitude": "-30.261867",
            "longitude": "-175.854729"
          },
          {
            "_id": "33303",
            "address": "756 Ludlam Place, Jennings, New Jersey, 5595",
            "phone": "+1 (858) 515-3813",
            "name": "Realysis",
            "propertyId": "60804",
            "state": "Mississippi",
            "latitude": "56.953662",
            "longitude": "151.128276"
          },
          {
            "_id": "01109",
            "address": "374 Mersereau Court, Somerset, California, 6420",
            "phone": "+1 (895) 455-2381",
            "name": "Nikuda",
            "propertyId": "60804",
            "state": "Rhode Island",
            "latitude": "-20.940864",
            "longitude": "-85.956661"
          },
          {
            "_id": "50075",
            "address": "668 Fleet Place, Hanover, West Virginia, 6708",
            "phone": "+1 (985) 437-2535",
            "name": "Zyple",
            "propertyId": "60804",
            "state": "Montana",
            "latitude": "12.362926",
            "longitude": "-90.295023"
          }
        ]
      },
      {
        "_id": "35912",
        "address": "687 Berriman Street, Staples, Puerto Rico, 6859",
        "phone": "+1 (989) 424-2468",
        "name": "Sealoud",
        "tennantId": "46075",
        "state": "American Samoa",
        "latitude": "54.680191",
        "longitude": "-175.413846",
        "buildings": [
          {
            "_id": "82177",
            "address": "998 Ferris Street, Barrelville, Ohio, 1087",
            "phone": "+1 (948) 442-3742",
            "name": "Enersave",
            "propertyId": "35912",
            "state": "Virginia",
            "latitude": "-40.817892",
            "longitude": "26.997721"
          },
          {
            "_id": "82394",
            "address": "144 Story Court, Rivers, Illinois, 6201",
            "phone": "+1 (989) 569-2278",
            "name": "Ozean",
            "propertyId": "35912",
            "state": "Idaho",
            "latitude": "-50.208644",
            "longitude": "-16.041885"
          },
          {
            "_id": "12864",
            "address": "793 Tompkins Avenue, Elwood, Texas, 2535",
            "phone": "+1 (963) 556-3208",
            "name": "Twiist",
            "propertyId": "35912",
            "state": "Palau",
            "latitude": "36.087364",
            "longitude": "72.194949"
          },
          {
            "_id": "62192",
            "address": "925 Brown Street, Marion, Tennessee, 7585",
            "phone": "+1 (803) 457-2259",
            "name": "Terrago",
            "propertyId": "35912",
            "state": "Marshall Islands",
            "latitude": "-61.912465",
            "longitude": "-13.13225"
          },
          {
            "_id": "38582",
            "address": "805 Gatling Place, Siglerville, Northern Mariana Islands, 5579",
            "phone": "+1 (949) 572-2354",
            "name": "Assurity",
            "propertyId": "35912",
            "state": "Hawaii",
            "latitude": "-48.417449",
            "longitude": "30.868927"
          },
          {
            "_id": "90916",
            "address": "851 Wolcott Street, Bowmansville, District Of Columbia, 6380",
            "phone": "+1 (833) 476-2970",
            "name": "Acruex",
            "propertyId": "35912",
            "state": "Alaska",
            "latitude": "44.404326",
            "longitude": "-178.662085"
          }
        ]
      },
      {
        "_id": "92161",
        "address": "626 Brightwater Avenue, Waverly, Wyoming, 5556",
        "phone": "+1 (891) 590-3351",
        "name": "Geekular",
        "tennantId": "46075",
        "state": "Pennsylvania",
        "latitude": "-79.300317",
        "longitude": "-166.187075",
        "buildings": [
          {
            "_id": "69607",
            "address": "273 Sumpter Street, Sabillasville, New York, 7558",
            "phone": "+1 (900) 520-3053",
            "name": "Bullzone",
            "propertyId": "92161",
            "state": "Minnesota",
            "latitude": "27.784135",
            "longitude": "-57.42297"
          },
          {
            "_id": "37707",
            "address": "398 Alton Place, Sexton, Louisiana, 7218",
            "phone": "+1 (938) 563-2792",
            "name": "Unq",
            "propertyId": "92161",
            "state": "South Carolina",
            "latitude": "44.636229",
            "longitude": "121.038217"
          },
          {
            "_id": "40492",
            "address": "807 Lewis Place, Roulette, Wisconsin, 2165",
            "phone": "+1 (838) 501-3287",
            "name": "Viocular",
            "propertyId": "92161",
            "state": "Missouri",
            "latitude": "-40.593372",
            "longitude": "112.363043"
          },
          {
            "_id": "15443",
            "address": "456 Empire Boulevard, Woodburn, Kentucky, 9372",
            "phone": "+1 (853) 447-2842",
            "name": "Uni",
            "propertyId": "92161",
            "state": "New Hampshire",
            "latitude": "35.370314",
            "longitude": "35.528836"
          },
          {
            "_id": "46087",
            "address": "190 Wogan Terrace, Comptche, North Dakota, 2475",
            "phone": "+1 (978) 449-2255",
            "name": "Entroflex",
            "propertyId": "92161",
            "state": "Iowa",
            "latitude": "-48.846343",
            "longitude": "-65.647085"
          }
        ]
      },
      {
        "_id": "48516",
        "address": "146 Ross Street, Lewis, Connecticut, 7474",
        "phone": "+1 (913) 424-2699",
        "name": "Maxemia",
        "tennantId": "46075",
        "state": "Florida",
        "latitude": "30.811764",
        "longitude": "114.795921",
        "buildings": [
          {
            "_id": "82983",
            "address": "654 Cypress Avenue, Outlook, Colorado, 2852",
            "phone": "+1 (883) 577-3834",
            "name": "Comtrak",
            "propertyId": "48516",
            "state": "Maryland",
            "latitude": "-71.514067",
            "longitude": "177.196279"
          },
          {
            "_id": "56894",
            "address": "978 Arkansas Drive, Wollochet, Alabama, 5327",
            "phone": "+1 (868) 546-2038",
            "name": "Kog",
            "propertyId": "48516",
            "state": "Kansas",
            "latitude": "47.655683",
            "longitude": "79.156096"
          },
          {
            "_id": "85418",
            "address": "901 Devon Avenue, Jugtown, Arkansas, 7409",
            "phone": "+1 (982) 403-3725",
            "name": "Ezent",
            "propertyId": "48516",
            "state": "Washington",
            "latitude": "11.305379",
            "longitude": "-82.881394"
          },
          {
            "_id": "15035",
            "address": "820 Hopkins Street, Cornucopia, New Jersey, 1707",
            "phone": "+1 (915) 513-3649",
            "name": "Prowaste",
            "propertyId": "48516",
            "state": "Mississippi",
            "latitude": "-35.353481",
            "longitude": "-16.823613"
          },
          {
            "_id": "01839",
            "address": "808 Osborn Street, Fairacres, California, 7868",
            "phone": "+1 (879) 570-2657",
            "name": "Zanilla",
            "propertyId": "48516",
            "state": "Rhode Island",
            "latitude": "33.737889",
            "longitude": "178.049609"
          }
        ]
      },
      {
        "_id": "16046",
        "address": "152 Joralemon Street, Hardyville, Ohio, 8861",
        "phone": "+1 (977) 520-3289",
        "name": "Centree",
        "tennantId": "46075",
        "state": "Virginia",
        "latitude": "-73.685459",
        "longitude": "-7.51797",
        "buildings": [
          {
            "_id": "45834",
            "address": "557 Beaumont Street, Rehrersburg, Illinois, 6696",
            "phone": "+1 (935) 414-2942",
            "name": "Supremia",
            "propertyId": "16046",
            "state": "Idaho",
            "latitude": "-72.667673",
            "longitude": "38.833685"
          },
          {
            "_id": "02510",
            "address": "857 Pioneer Street, Tivoli, Texas, 2624",
            "phone": "+1 (941) 594-2980",
            "name": "Combogene",
            "propertyId": "16046",
            "state": "Palau",
            "latitude": "2.053351",
            "longitude": "-173.456903"
          },
          {
            "_id": "52088",
            "address": "813 Wakeman Place, Loma, Tennessee, 353",
            "phone": "+1 (875) 585-2757",
            "name": "Matrixity",
            "propertyId": "16046",
            "state": "Marshall Islands",
            "latitude": "-58.586457",
            "longitude": "84.085291"
          },
          {
            "_id": "76335",
            "address": "967 Harden Street, Sattley, Northern Mariana Islands, 5205",
            "phone": "+1 (866) 547-2389",
            "name": "Plasmosis",
            "propertyId": "16046",
            "state": "Hawaii",
            "latitude": "86.924259",
            "longitude": "176.236598"
          },
          {
            "_id": "15667",
            "address": "261 Schweikerts Walk, Cartwright, District Of Columbia, 4251",
            "phone": "+1 (826) 583-3973",
            "name": "Buzzness",
            "propertyId": "16046",
            "state": "Alaska",
            "latitude": "-68.287681",
            "longitude": "39.47796"
          }
        ]
      },
      {
        "_id": "21687",
        "address": "637 Varanda Place, Madaket, New York, 8341",
        "phone": "+1 (817) 527-2081",
        "name": "Remotion",
        "tennantId": "46075",
        "state": "Minnesota",
        "latitude": "-52.518105",
        "longitude": "-130.250333",
        "buildings": [
          {
            "_id": "64720",
            "address": "903 Bokee Court, Bath, Louisiana, 4944",
            "phone": "+1 (993) 537-3426",
            "name": "Boink",
            "propertyId": "21687",
            "state": "South Carolina",
            "latitude": "-62.781032",
            "longitude": "158.683643"
          },
          {
            "_id": "38117",
            "address": "355 Varick Street, Bluetown, Wisconsin, 2969",
            "phone": "+1 (995) 412-2011",
            "name": "Unia",
            "propertyId": "21687",
            "state": "Missouri",
            "latitude": "-28.680174",
            "longitude": "-113.710048"
          },
          {
            "_id": "36255",
            "address": "885 Bush Street, Greenfields, Kentucky, 6113",
            "phone": "+1 (810) 553-3189",
            "name": "Exoswitch",
            "propertyId": "21687",
            "state": "New Hampshire",
            "latitude": "-47.319965",
            "longitude": "156.488037"
          },
          {
            "_id": "47018",
            "address": "339 Mill Lane, Itmann, North Dakota, 8556",
            "phone": "+1 (945) 442-2572",
            "name": "Fanfare",
            "propertyId": "21687",
            "state": "Iowa",
            "latitude": "22.13686",
            "longitude": "48.484655"
          },
          {
            "_id": "16951",
            "address": "263 Independence Avenue, Moquino, Georgia, 1413",
            "phone": "+1 (855) 515-2528",
            "name": "Concility",
            "propertyId": "21687",
            "state": "Virgin Islands",
            "latitude": "57.277728",
            "longitude": "-120.062285"
          },
          {
            "_id": "29280",
            "address": "953 Eaton Court, Chesterfield, Nebraska, 1216",
            "phone": "+1 (806) 536-3392",
            "name": "Terascape",
            "propertyId": "21687",
            "state": "Oregon",
            "latitude": "-0.064777",
            "longitude": "149.699887"
          }
        ]
      }
    ]
  }
]