[{"_id":"13855","isActive":true,"logo":"images/0.jpg","picture":"https://placeholder.com/wp-content/uploads/2018/10/placeholder.com-logo3.jpg","name":"CORPULSE","phone":"+1 (936) 515-3622","address":"659 Monroe Street, Gardiner, Georgia, 9014","email":"corpulse@corpulse.com","properties":[{"_id":"43805","address":"708 Lott Avenue, Gloucester, Virgin Islands, 5043","phone":"+1 (881) 541-3943","name":"Musanpoly","tennantId":"13855","state":"Nebraska","latitude":"-61.866094","longitude":"-29.87921","buildings":[{"_id":"42700","address":"979 George Street, Blue, Oregon, 5915","phone":"+1 (956) 542-2281","name":"Gazak","propertyId":"43805","state":"Oklahoma","latitude":"-61.866094","longitude":null},{"_id":"09813","address":"349 Humboldt Street, Shindler, Federated States Of Micronesia, 6526","phone":"+1 (970) 507-3031","name":"Bitrex","propertyId":"43805","state":"Arizona","latitude":-61.866173999999994,"longitude":"-29.87921"},{"_id":"88544","address":"635 Clinton Street, Bakersville, Indiana, 8822","phone":"+1 (988) 557-2188","name":"Renovize","propertyId":"43805","state":"Connecticut","latitude":"-61.866094","longitude":-29.879260000000002},{"_id":"63991","address":"881 Perry Terrace, Whitestone, Florida, 1366","phone":"+1 (927) 545-3640","name":"Rodeology","propertyId":"43805","state":"Colorado","latitude":-61.866184,"longitude":"-29.87921"},{"_id":"11491","address":"978 Belmont Avenue, Rodanthe, Maryland, 3686","phone":"+1 (874) 417-2098","name":"Stelaecor","propertyId":"43805","state":"Alabama","latitude":-61.866173999999994,"longitude":"-29.87921"},{"_id":"50462","address":"100 Division Place, Bordelonville, Kansas, 6416","phone":"+1 (828) 539-2342","name":"Plasmos","propertyId":"43805","state":"Arkansas","latitude":"-61.866094","longitude":null},{"_id":"14862","address":"368 Macon Street, Summerset, Washington, 8104","phone":"+1 (829) 454-2520","name":"Pyramis","propertyId":"43805","state":"New Jersey","latitude":-61.866173999999994,"longitude":"-29.87921"},{"_id":"19789","address":"624 Hull Street, Cotopaxi, Mississippi, 471","phone":"+1 (837) 534-2048","name":"Elemantra","propertyId":"43805","state":"California","latitude":"-61.866094","longitude":-29.87924},{"_id":"08531","address":"539 Newton Street, Garberville, Rhode Island, 7523","phone":"+1 (842) 408-3046","name":"Combogen","propertyId":"43805","state":"West Virginia","latitude":null,"longitude":"-29.87921"}]},{"_id":"05137","address":"124 Pine Street, Campo, Montana, 7782","phone":"+1 (850) 571-2954","name":"Zork","tennantId":"13855","state":"Guam","latitude":"-66.959054","longitude":"88.754213","buildings":[{"_id":"63609","address":"277 Bills Place, Holtville, Maine, 8906","phone":"+1 (803) 478-2806","name":"Zytrex","propertyId":"05137","state":"Delaware","latitude":null,"longitude":"88.754213"},{"_id":"26993","address":"341 Croton Loop, Harold, Vermont, 9181","phone":"+1 (848) 462-2078","name":"Gynko","propertyId":"05137","state":"Puerto Rico","latitude":"-66.959054","longitude":88.754173},{"_id":"52220","address":"829 Chester Street, Woodlake, American Samoa, 3221","phone":"+1 (828) 548-3490","name":"Fortean","propertyId":"05137","state":"Ohio","latitude":-66.959144,"longitude":"88.754213"},{"_id":"51084","address":"226 Taaffe Place, Brethren, Virginia, 3779","phone":"+1 (914) 597-2806","name":"Rodeocean","propertyId":"05137","state":"Illinois","latitude":null,"longitude":"88.754213"},{"_id":"96447","address":"614 Lacon Court, Knowlton, Idaho, 4364","phone":"+1 (892) 479-2710","name":"Cujo","propertyId":"05137","state":"Texas","latitude":"-66.959054","longitude":88.75416299999999},{"_id":"43695","address":"636 Rodney Street, Wright, Palau, 6297","phone":"+1 (871) 583-2203","name":"Synkgen","propertyId":"05137","state":"Tennessee","latitude":"-66.959054","longitude":88.75416299999999}]},{"_id":"38633","address":"346 Madoc Avenue, Matheny, Massachusetts, 4235","phone":"+1 (917) 489-3104","name":"Earthpure","tennantId":"13855","state":"Utah","latitude":"56.404176","longitude":"-135.834884","buildings":[{"_id":"24049","address":"538 Suydam Place, Brandermill, New Mexico, 4479","phone":"+1 (965) 461-2046","name":"Fangold","propertyId":"38633","state":"Michigan","latitude":56.404086,"longitude":"-135.834884"},{"_id":"28360","address":"817 Kenmore Court, Leola, North Carolina, 768","phone":"+1 (912) 535-3782","name":"Cincyr","propertyId":"38633","state":"Wyoming","latitude":"56.404176","longitude":null},{"_id":"49270","address":"786 Ivan Court, Edenburg, Pennsylvania, 6914","phone":"+1 (979) 534-2129","name":"Kongene","propertyId":"38633","state":"New York","latitude":56.404086,"longitude":"-135.834884"},{"_id":"75476","address":"623 Cropsey Avenue, Detroit, Minnesota, 8429","phone":"+1 (966) 493-3843","name":"Telequiet","propertyId":"38633","state":"Louisiana","latitude":"56.404176","longitude":null},{"_id":"77943","address":"843 Elliott Place, Lisco, South Carolina, 2508","phone":"+1 (824) 508-3415","name":"Songbird","propertyId":"38633","state":"Wisconsin","latitude":56.404086,"longitude":"-135.834884"},{"_id":"63129","address":"645 Wilson Avenue, Herlong, Missouri, 9140","phone":"+1 (831) 581-2754","name":"Golistic","propertyId":"38633","state":"Kentucky","latitude":"56.404176","longitude":-135.834914},{"_id":"28990","address":"912 Boulevard Court, Blackgum, New Hampshire, 4546","phone":"+1 (982) 561-3684","name":"Magmina","propertyId":"38633","state":"North Dakota","latitude":"56.404176","longitude":-135.83493399999998}]},{"_id":"14081","address":"603 Horace Court, Sidman, Oregon, 1623","phone":"+1 (983) 576-2212","name":"Infotrips","tennantId":"13855","state":"Oklahoma","latitude":"-7.223416","longitude":"-78.459811","buildings":[{"_id":"62068","address":"486 McKinley Avenue, Linganore, Federated States Of Micronesia, 3818","phone":"+1 (985) 551-2976","name":"Digial","propertyId":"14081","state":"Arizona","latitude":-7.223506,"longitude":"-78.459811"},{"_id":"06268","address":"879 Colonial Court, Hoagland, Indiana, 1548","phone":"+1 (909) 455-2490","name":"Retrotex","propertyId":"14081","state":"Connecticut","latitude":"-7.223416","longitude":null},{"_id":"34736","address":"132 Alabama Avenue, Lopezo, Florida, 2758","phone":"+1 (997) 506-2228","name":"Envire","propertyId":"14081","state":"Colorado","latitude":"-7.223416","longitude":-78.459861},{"_id":"47403","address":"987 Orient Avenue, Wanship, Maryland, 2587","phone":"+1 (961) 586-2758","name":"Xiix","propertyId":"14081","state":"Alabama","latitude":null,"longitude":"-78.459811"},{"_id":"37052","address":"975 Christopher Avenue, Wilsonia, Kansas, 3783","phone":"+1 (970) 474-2507","name":"Kidstock","propertyId":"14081","state":"Arkansas","latitude":"-7.223416","longitude":-78.459861}]},{"_id":"31251","address":"231 Abbey Court, Dowling, Maine, 5511","phone":"+1 (863) 497-2008","name":"Sunclipse","tennantId":"13855","state":"Delaware","latitude":"63.986943","longitude":"37.831758","buildings":[{"_id":"39930","address":"433 Mermaid Avenue, Deltaville, Vermont, 7818","phone":"+1 (874) 496-2749","name":"Flum","propertyId":"31251","state":"Puerto Rico","latitude":63.986852999999996,"longitude":"37.831758"},{"_id":"14910","address":"485 Lott Street, Crown, American Samoa, 1346","phone":"+1 (968) 549-3918","name":"Bittor","propertyId":"31251","state":"Ohio","latitude":null,"longitude":"37.831758"},{"_id":"61203","address":"723 Whitty Lane, Carlos, Virginia, 2444","phone":"+1 (860) 594-2840","name":"Ginkle","propertyId":"31251","state":"Illinois","latitude":63.98684299999999,"longitude":"37.831758"},{"_id":"60653","address":"777 Arion Place, Thatcher, Idaho, 7024","phone":"+1 (924) 514-2966","name":"Tri@Tribalog","propertyId":"31251","state":"Texas","latitude":63.986852999999996,"longitude":"37.831758"},{"_id":"12412","address":"674 Lorimer Street, Edmund, Palau, 3239","phone":"+1 (890) 545-2323","name":"Providco","propertyId":"31251","state":"Tennessee","latitude":63.98684299999999,"longitude":"37.831758"}]},{"_id":"86381","address":"911 Gelston Avenue, Ernstville, New Mexico, 3131","phone":"+1 (900) 475-2326","name":"Cowtown","tennantId":"13855","state":"Michigan","latitude":"43.04499","longitude":"-22.942848","buildings":[{"_id":"48375","address":"329 Harkness Avenue, Kimmell, North Carolina, 5840","phone":"+1 (968) 438-3125","name":"Gorganic","propertyId":"86381","state":"Wyoming","latitude":43.0449,"longitude":"-22.942848"},{"_id":"07822","address":"700 Cypress Court, Goodville, Pennsylvania, 3050","phone":"+1 (841) 593-3032","name":"Gaptec","propertyId":"86381","state":"New York","latitude":"43.04499","longitude":null},{"_id":"84337","address":"748 Jewel Street, Gerber, Minnesota, 6460","phone":"+1 (833) 510-3392","name":"Ramjob","propertyId":"86381","state":"Louisiana","latitude":"43.04499","longitude":null},{"_id":"61060","address":"489 Bayview Place, Oley, South Carolina, 1656","phone":"+1 (863) 555-3346","name":"Shepard","propertyId":"86381","state":"Wisconsin","latitude":43.0449,"longitude":"-22.942848"},{"_id":"01759","address":"527 Dwight Street, Sterling, Missouri, 6350","phone":"+1 (970) 580-2357","name":"Rocklogic","propertyId":"86381","state":"Kentucky","latitude":"43.04499","longitude":-22.942888}]},{"_id":"14638","address":"786 Crown Street, Dixonville, Federated States Of Micronesia, 764","phone":"+1 (812) 519-3658","name":"Emtrak","tennantId":"13855","state":"Arizona","latitude":"10.064787","longitude":"110.756369","buildings":[{"_id":"24939","address":"700 Malta Street, Ruffin, Indiana, 9751","phone":"+1 (870) 458-3459","name":"Primordia","propertyId":"14638","state":"Connecticut","latitude":"10.064787","longitude":null},{"_id":"38857","address":"882 Loring Avenue, Thornport, Florida, 6491","phone":"+1 (863) 553-2446","name":"Yogasm","propertyId":"14638","state":"Colorado","latitude":"10.064787","longitude":110.75633900000001},{"_id":"08939","address":"903 Nixon Court, Turah, Maryland, 418","phone":"+1 (801) 495-2076","name":"Lyrichord","propertyId":"14638","state":"Alabama","latitude":"10.064787","longitude":110.756319},{"_id":"30910","address":"842 McClancy Place, Steinhatchee, Kansas, 2848","phone":"+1 (842) 461-2555","name":"Xanide","propertyId":"14638","state":"Arkansas","latitude":"10.064787","longitude":110.75632900000001},{"_id":"50553","address":"201 Celeste Court, Swartzville, Washington, 7055","phone":"+1 (856) 497-2806","name":"Enervate","propertyId":"14638","state":"New Jersey","latitude":null,"longitude":"110.756369"},{"_id":"56059","address":"739 Moultrie Street, Chestnut, Mississippi, 7896","phone":"+1 (945) 589-2192","name":"Fishland","propertyId":"14638","state":"California","latitude":10.064697,"longitude":"110.756369"},{"_id":"55974","address":"796 Decatur Street, Keyport, Rhode Island, 2962","phone":"+1 (801) 502-2706","name":"Mitroc","propertyId":"14638","state":"West Virginia","latitude":null,"longitude":"110.756369"}]},{"_id":"26874","address":"577 Mill Street, Bentonville, Vermont, 4932","phone":"+1 (998) 595-2522","name":"Eclipsent","tennantId":"13855","state":"Puerto Rico","latitude":"-8.131505","longitude":"-149.080081","buildings":[{"_id":"72422","address":"327 Denton Place, Kilbourne, American Samoa, 3705","phone":"+1 (847) 566-2159","name":"Viagreat","propertyId":"26874","state":"Ohio","latitude":null,"longitude":"-149.080081"},{"_id":"81248","address":"406 Montauk Avenue, Caln, Virginia, 5091","phone":"+1 (893) 415-2991","name":"Tropolis","propertyId":"26874","state":"Illinois","latitude":-8.131595,"longitude":"-149.080081"},{"_id":"69768","address":"375 Canarsie Road, Kidder, Idaho, 5082","phone":"+1 (921) 477-2395","name":"Manufact","propertyId":"26874","state":"Texas","latitude":"-8.131505","longitude":-149.080131},{"_id":"92863","address":"798 John Street, Ada, Palau, 3503","phone":"+1 (900) 485-2263","name":"Moreganic","propertyId":"26874","state":"Tennessee","latitude":"-8.131505","longitude":null},{"_id":"90300","address":"619 Waldorf Court, Lindcove, Marshall Islands, 5524","phone":"+1 (815) 438-2855","name":"Comtent","propertyId":"26874","state":"Northern Mariana Islands","latitude":null,"longitude":"-149.080081"},{"_id":"10617","address":"114 Gerritsen Avenue, Jessie, Hawaii, 6997","phone":"+1 (807) 406-2523","name":"Snips","propertyId":"26874","state":"District Of Columbia","latitude":"-8.131505","longitude":-149.08012100000002},{"_id":"45527","address":"949 Hoyts Lane, Robbins, Alaska, 8353","phone":"+1 (962) 432-2979","name":"Cuizine","propertyId":"26874","state":"South Dakota","latitude":"-8.131505","longitude":-149.08012100000002},{"_id":"66798","address":"979 Doone Court, Trinway, Massachusetts, 1667","phone":"+1 (982) 577-3847","name":"Printspan","propertyId":"26874","state":"Utah","latitude":"-8.131505","longitude":null}]},{"_id":"92435","address":"147 Conover Street, Goochland, North Carolina, 9831","phone":"+1 (945) 431-3185","name":"Techade","tennantId":"13855","state":"Wyoming","latitude":"52.206818","longitude":"-118.502638","buildings":[{"_id":"93264","address":"175 Murdock Court, Westmoreland, Pennsylvania, 5149","phone":"+1 (875) 532-2075","name":"Puria","propertyId":"92435","state":"New York","latitude":"52.206818","longitude":-118.502678},{"_id":"23861","address":"963 Kent Avenue, Unionville, Minnesota, 1242","phone":"+1 (954) 507-2024","name":"Insuresys","propertyId":"92435","state":"Louisiana","latitude":"52.206818","longitude":-118.502678},{"_id":"93244","address":"754 Broome Street, Loyalhanna, South Carolina, 4507","phone":"+1 (846) 541-2423","name":"Futuris","propertyId":"92435","state":"Wisconsin","latitude":null,"longitude":"-118.502638"},{"_id":"76184","address":"841 Vista Place, Walker, Missouri, 3001","phone":"+1 (893) 538-2156","name":"Interodeo","propertyId":"92435","state":"Kentucky","latitude":"52.206818","longitude":null},{"_id":"52404","address":"330 Shale Street, Tampico, New Hampshire, 4030","phone":"+1 (898) 581-3254","name":"Cubicide","propertyId":"92435","state":"North Dakota","latitude":"52.206818","longitude":null},{"_id":"60169","address":"154 Monument Walk, Elizaville, Iowa, 9927","phone":"+1 (990) 400-2931","name":"Gadtron","propertyId":"92435","state":"Georgia","latitude":52.206728,"longitude":"-118.502638"},{"_id":"88733","address":"684 Clove Road, Charco, Virgin Islands, 1367","phone":"+1 (844) 415-2513","name":"Pyramax","propertyId":"92435","state":"Nebraska","latitude":"52.206818","longitude":null},{"_id":"15907","address":"976 Metropolitan Avenue, Rossmore, Oregon, 2819","phone":"+1 (868) 584-3366","name":"Repetwire","propertyId":"92435","state":"Oklahoma","latitude":null,"longitude":"-118.502638"},{"_id":"43568","address":"536 Seeley Street, Groton, Federated States Of Micronesia, 2546","phone":"+1 (980) 474-2598","name":"Zaggles","propertyId":"92435","state":"Arizona","latitude":"52.206818","longitude":-118.502688}]}]},{"_id":"54116","isActive":false,"logo":"images/1.jpg","picture":"https://placeholder.com/wp-content/uploads/2018/10/placeholder.com-logo3.jpg","name":"ZERBINA","phone":"+1 (814) 534-3567","address":"269 Lake Avenue, Canby, Indiana, 9696","email":"zerbina@zerbina.net","properties":[{"_id":"26717","address":"600 Hastings Street, Henrietta, Connecticut, 7856","phone":"+1 (844) 574-2947","name":"Ewaves","tennantId":"54116","state":"Florida","latitude":"46.444227","longitude":"-143.074736","buildings":[{"_id":"65353","address":"266 Hamilton Walk, Murillo, Colorado, 9147","phone":"+1 (870) 486-2076","name":"Oulu","propertyId":"26717","state":"Maryland","latitude":46.444137,"longitude":"-143.074736"},{"_id":"47053","address":"933 Norman Avenue, Gerton, Alabama, 7666","phone":"+1 (845) 453-3409","name":"Isoplex","propertyId":"26717","state":"Kansas","latitude":46.444137,"longitude":"-143.074736"},{"_id":"51310","address":"144 Throop Avenue, Cresaptown, Arkansas, 3173","phone":"+1 (965) 447-3840","name":"Earthmark","propertyId":"26717","state":"Washington","latitude":null,"longitude":"-143.074736"},{"_id":"06096","address":"939 Everett Avenue, Hondah, New Jersey, 9461","phone":"+1 (891) 443-2030","name":"Geologix","propertyId":"26717","state":"Mississippi","latitude":46.444126999999995,"longitude":"-143.074736"},{"_id":"42702","address":"115 Lott Place, Norvelt, California, 8730","phone":"+1 (953) 488-3136","name":"Furnitech","propertyId":"26717","state":"Rhode Island","latitude":null,"longitude":"-143.074736"},{"_id":"62766","address":"282 Strickland Avenue, Aguila, West Virginia, 6760","phone":"+1 (936) 518-3663","name":"Isologix","propertyId":"26717","state":"Montana","latitude":46.444126999999995,"longitude":"-143.074736"}]},{"_id":"79173","address":"478 Cranberry Street, Basye, Ohio, 3539","phone":"+1 (867) 465-2282","name":"Pasturia","tennantId":"54116","state":"Virginia","latitude":"-63.20987","longitude":"153.989029","buildings":[{"_id":"59380","address":"132 Clermont Avenue, Echo, Illinois, 3026","phone":"+1 (912) 473-2972","name":"Balooba","propertyId":"79173","state":"Idaho","latitude":"-63.20987","longitude":153.988979},{"_id":"94193","address":"715 Grand Avenue, Coleville, Texas, 895","phone":"+1 (848) 539-2694","name":"Nebulean","propertyId":"79173","state":"Palau","latitude":"-63.20987","longitude":153.988979},{"_id":"12367","address":"853 Tennis Court, Lodoga, Tennessee, 5014","phone":"+1 (861) 564-2242","name":"Corepan","propertyId":"79173","state":"Marshall Islands","latitude":"-63.20987","longitude":null},{"_id":"38529","address":"974 Lawn Court, Kula, Northern Mariana Islands, 2045","phone":"+1 (866) 480-3071","name":"Andryx","propertyId":"79173","state":"Hawaii","latitude":"-63.20987","longitude":153.988979},{"_id":"63195","address":"698 Beadel Street, Balm, District Of Columbia, 2574","phone":"+1 (810) 441-3464","name":"Eyeris","propertyId":"79173","state":"Alaska","latitude":-63.20995,"longitude":"153.989029"},{"_id":"52267","address":"307 Euclid Avenue, Barronett, South Dakota, 7472","phone":"+1 (994) 561-2512","name":"Comtext","propertyId":"79173","state":"Massachusetts","latitude":null,"longitude":"153.989029"},{"_id":"11476","address":"145 Florence Avenue, Caberfae, Utah, 1891","phone":"+1 (863) 440-2435","name":"Namegen","propertyId":"79173","state":"New Mexico","latitude":"-63.20987","longitude":null}]},{"_id":"00095","address":"496 Virginia Place, Finderne, New York, 5940","phone":"+1 (895) 460-3002","name":"Wrapture","tennantId":"54116","state":"Minnesota","latitude":"-60.474383","longitude":"59.657525","buildings":[{"_id":"02858","address":"520 Story Street, Clayville, Louisiana, 712","phone":"+1 (913) 453-3999","name":"Fuelworks","propertyId":"00095","state":"South Carolina","latitude":null,"longitude":"59.657525"},{"_id":"89616","address":"501 Locust Avenue, Tonopah, Wisconsin, 5944","phone":"+1 (804) 439-2945","name":"Voipa","propertyId":"00095","state":"Missouri","latitude":-60.474473,"longitude":"59.657525"},{"_id":"62203","address":"882 Gerald Court, Bergoo, Kentucky, 9637","phone":"+1 (859) 550-3023","name":"Biflex","propertyId":"00095","state":"New Hampshire","latitude":"-60.474383","longitude":null},{"_id":"12655","address":"953 Fairview Place, Hatteras, North Dakota, 5254","phone":"+1 (930) 434-2172","name":"Oronoko","propertyId":"00095","state":"Iowa","latitude":null,"longitude":"59.657525"},{"_id":"01297","address":"722 Fleet Walk, Eastvale, Georgia, 1924","phone":"+1 (824) 452-3439","name":"Urbanshee","propertyId":"00095","state":"Virgin Islands","latitude":"-60.474383","longitude":59.657475},{"_id":"21182","address":"763 Heyward Street, Hegins, Nebraska, 4976","phone":"+1 (985) 468-2382","name":"Quinex","propertyId":"00095","state":"Oregon","latitude":null,"longitude":"59.657525"},{"_id":"04327","address":"682 Ditmars Street, Wadsworth, Oklahoma, 8472","phone":"+1 (937) 497-3904","name":"Hairport","propertyId":"00095","state":"Federated States Of Micronesia","latitude":-60.474483000000006,"longitude":"59.657525"},{"_id":"48015","address":"577 Village Road, Odessa, Arizona, 1559","phone":"+1 (873) 558-3840","name":"Kangle","propertyId":"00095","state":"Indiana","latitude":"-60.474383","longitude":59.657485},{"_id":"87598","address":"900 Lawrence Avenue, Finzel, Connecticut, 2212","phone":"+1 (807) 545-3404","name":"Motovate","propertyId":"00095","state":"Florida","latitude":"-60.474383","longitude":59.657475}]},{"_id":"68989","address":"570 Schenck Street, Ticonderoga, Colorado, 9791","phone":"+1 (848) 460-3578","name":"Lunchpod","tennantId":"54116","state":"Maryland","latitude":"-18.926167","longitude":"21.043268","buildings":[{"_id":"07615","address":"187 Kansas Place, Beaverdale, Alabama, 1457","phone":"+1 (871) 554-3919","name":"Orbin","propertyId":"68989","state":"Kansas","latitude":null,"longitude":"21.043268"},{"_id":"15040","address":"894 Dare Court, Hailesboro, Arkansas, 1303","phone":"+1 (958) 588-2253","name":"Signity","propertyId":"68989","state":"Washington","latitude":"-18.926167","longitude":null},{"_id":"24907","address":"838 Townsend Street, Boonville, New Jersey, 4913","phone":"+1 (886) 446-2810","name":"Techmania","propertyId":"68989","state":"Mississippi","latitude":"-18.926167","longitude":21.043218},{"_id":"72674","address":"224 Leonard Street, Oneida, California, 7490","phone":"+1 (846) 520-3612","name":"Indexia","propertyId":"68989","state":"Rhode Island","latitude":-18.926247,"longitude":"21.043268"},{"_id":"98574","address":"362 Linden Street, Eagletown, West Virginia, 2880","phone":"+1 (952) 464-3656","name":"Gynk","propertyId":"68989","state":"Montana","latitude":"-18.926167","longitude":21.043218},{"_id":"50843","address":"279 Malbone Street, Succasunna, Guam, 126","phone":"+1 (958) 560-2167","name":"Exovent","propertyId":"68989","state":"Maine","latitude":"-18.926167","longitude":null},{"_id":"75885","address":"812 Quay Street, Chaparrito, Delaware, 7316","phone":"+1 (856) 561-2813","name":"Uberlux","propertyId":"68989","state":"Vermont","latitude":-18.926257,"longitude":"21.043268"},{"_id":"87571","address":"373 Bragg Court, Catherine, Puerto Rico, 1743","phone":"+1 (946) 514-2005","name":"Orbiflex","propertyId":"68989","state":"American Samoa","latitude":"-18.926167","longitude":21.043218}]},{"_id":"53823","address":"110 Reeve Place, Foscoe, Illinois, 6058","phone":"+1 (980) 547-2587","name":"Bugsall","tennantId":"54116","state":"Idaho","latitude":"-12.642756","longitude":"-160.029553","buildings":[{"_id":"41862","address":"620 Cameron Court, Riviera, Texas, 4099","phone":"+1 (809) 468-2592","name":"Anocha","propertyId":"53823","state":"Palau","latitude":"-12.642756","longitude":-160.02960299999998},{"_id":"65701","address":"214 Kings Hwy, Breinigsville, Tennessee, 466","phone":"+1 (971) 559-2560","name":"Blanet","propertyId":"53823","state":"Marshall Islands","latitude":-12.642846,"longitude":"-160.029553"},{"_id":"31783","address":"433 Tompkins Place, Waiohinu, Northern Mariana Islands, 6727","phone":"+1 (855) 473-2113","name":"Medcom","propertyId":"53823","state":"Hawaii","latitude":null,"longitude":"-160.029553"},{"_id":"69183","address":"505 Onderdonk Avenue, Corinne, District Of Columbia, 2065","phone":"+1 (977) 456-2810","name":"Corporana","propertyId":"53823","state":"Alaska","latitude":null,"longitude":"-160.029553"},{"_id":"12557","address":"666 Stone Avenue, Onton, South Dakota, 8491","phone":"+1 (879) 555-2331","name":"Roughies","propertyId":"53823","state":"Massachusetts","latitude":-12.642856,"longitude":"-160.029553"},{"_id":"85449","address":"141 Coles Street, Roosevelt, Utah, 8871","phone":"+1 (871) 487-3821","name":"Digirang","propertyId":"53823","state":"New Mexico","latitude":"-12.642756","longitude":-160.029593},{"_id":"50598","address":"511 Miller Avenue, Sperryville, Michigan, 5518","phone":"+1 (958) 470-2586","name":"Sultrax","propertyId":"53823","state":"North Carolina","latitude":-12.642856,"longitude":"-160.029553"}]}]},{"_id":"29955","isActive":false,"logo":"images/2.jpg","picture":"https://placeholder.com/wp-content/uploads/2018/10/placeholder.com-logo3.jpg","name":"ZOARERE","phone":"+1 (991) 516-2534","address":"730 Bragg Street, Stouchsburg, Arkansas, 495","email":"zoarere@zoarere.me","properties":[{"_id":"96079","address":"165 Legion Street, Fontanelle, Washington, 1853","phone":"+1 (986) 443-3574","name":"Zialactic","tennantId":"29955","state":"New Jersey","latitude":"-45.532534","longitude":"55.056417","buildings":[{"_id":"63628","address":"562 Overbaugh Place, Freelandville, Mississippi, 3237","phone":"+1 (869) 430-2471","name":"Optyk","propertyId":"96079","state":"California","latitude":null,"longitude":"55.056417"},{"_id":"11029","address":"821 Grafton Street, Hayes, Rhode Island, 819","phone":"+1 (979) 432-3644","name":"Xoggle","propertyId":"96079","state":"West Virginia","latitude":null,"longitude":"55.056417"},{"_id":"98977","address":"803 Cleveland Street, Belgreen, Montana, 526","phone":"+1 (902) 438-2857","name":"Teraprene","propertyId":"96079","state":"Guam","latitude":"-45.532534","longitude":55.056387},{"_id":"59025","address":"102 Forbell Street, Guilford, Maine, 8273","phone":"+1 (915) 552-2228","name":"Quilm","propertyId":"96079","state":"Delaware","latitude":"-45.532534","longitude":55.056387},{"_id":"30289","address":"453 Beacon Court, Coyote, Vermont, 9697","phone":"+1 (898) 556-3348","name":"Norsup","propertyId":"96079","state":"Puerto Rico","latitude":"-45.532534","longitude":null},{"_id":"57060","address":"151 Havemeyer Street, Topanga, American Samoa, 5732","phone":"+1 (819) 447-3295","name":"Slax","propertyId":"96079","state":"Ohio","latitude":"-45.532534","longitude":null},{"_id":"82988","address":"797 Grimes Road, Zarephath, Virginia, 5789","phone":"+1 (969) 597-2489","name":"Euron","propertyId":"96079","state":"Illinois","latitude":"-45.532534","longitude":null},{"_id":"31559","address":"940 Hegeman Avenue, Broadlands, Idaho, 8848","phone":"+1 (960) 418-3047","name":"Genesynk","propertyId":"96079","state":"Texas","latitude":"-45.532534","longitude":55.056387}]},{"_id":"22463","address":"946 Jerome Avenue, Levant, Marshall Islands, 6508","phone":"+1 (947) 504-2264","name":"Xyqag","tennantId":"29955","state":"Northern Mariana Islands","latitude":"-35.551431","longitude":"-15.741141","buildings":[{"_id":"98383","address":"513 Havens Place, Cliff, Hawaii, 3419","phone":"+1 (884) 458-2823","name":"Caxt","propertyId":"22463","state":"District Of Columbia","latitude":"-35.551431","longitude":-15.741181000000001},{"_id":"44478","address":"622 Coleridge Street, Alderpoint, Alaska, 2696","phone":"+1 (970) 537-2627","name":"Exoteric","propertyId":"22463","state":"South Dakota","latitude":-35.551531000000004,"longitude":"-15.741141"},{"_id":"40969","address":"797 Chester Avenue, Loomis, Massachusetts, 647","phone":"+1 (990) 571-3726","name":"Geekology","propertyId":"22463","state":"Utah","latitude":null,"longitude":"-15.741141"},{"_id":"70448","address":"237 Cooke Court, Allendale, New Mexico, 4050","phone":"+1 (917) 498-2989","name":"Organica","propertyId":"22463","state":"Michigan","latitude":-35.551521,"longitude":"-15.741141"},{"_id":"77539","address":"233 Ruby Street, Bend, North Carolina, 9555","phone":"+1 (929) 547-3101","name":"Stucco","propertyId":"22463","state":"Wyoming","latitude":-35.551531000000004,"longitude":"-15.741141"},{"_id":"58385","address":"530 Prospect Place, Townsend, Pennsylvania, 8295","phone":"+1 (879) 409-3817","name":"Plutorque","propertyId":"22463","state":"New York","latitude":null,"longitude":"-15.741141"},{"_id":"50287","address":"408 Duryea Court, Hobucken, Minnesota, 9506","phone":"+1 (932) 549-2126","name":"Uplinx","propertyId":"22463","state":"Louisiana","latitude":-35.551521,"longitude":"-15.741141"}]},{"_id":"11200","address":"563 Rochester Avenue, Winston, New Hampshire, 5496","phone":"+1 (873) 478-3061","name":"Adornica","tennantId":"29955","state":"North Dakota","latitude":"-14.250928","longitude":"159.479292","buildings":[{"_id":"42652","address":"924 Fanchon Place, Klondike, Iowa, 8298","phone":"+1 (972) 535-2502","name":"Fuelton","propertyId":"11200","state":"Georgia","latitude":"-14.250928","longitude":null},{"_id":"50654","address":"950 Crescent Street, Kenwood, Virgin Islands, 9867","phone":"+1 (986) 428-3454","name":"Surelogic","propertyId":"11200","state":"Nebraska","latitude":-14.251018,"longitude":"159.479292"},{"_id":"29584","address":"342 Troutman Street, Dragoon, Oregon, 2035","phone":"+1 (965) 505-3424","name":"Mediot","propertyId":"11200","state":"Oklahoma","latitude":"-14.250928","longitude":159.47925199999997},{"_id":"08039","address":"829 Crosby Avenue, Ripley, Federated States Of Micronesia, 935","phone":"+1 (906) 482-2473","name":"Lovepad","propertyId":"11200","state":"Arizona","latitude":-14.251018,"longitude":"159.479292"},{"_id":"15464","address":"848 Thomas Street, Churchill, Indiana, 5799","phone":"+1 (918) 559-3465","name":"Deviltoe","propertyId":"11200","state":"Connecticut","latitude":"-14.250928","longitude":159.47926199999998},{"_id":"95768","address":"513 Wythe Place, Elliston, Florida, 9372","phone":"+1 (965) 500-3075","name":"Pivitol","propertyId":"11200","state":"Colorado","latitude":-14.251008,"longitude":"159.479292"},{"_id":"61886","address":"192 Richmond Street, Bentley, Maryland, 4078","phone":"+1 (998) 540-3869","name":"Medmex","propertyId":"11200","state":"Alabama","latitude":"-14.250928","longitude":null},{"_id":"33595","address":"744 Mill Avenue, Cassel, Kansas, 4606","phone":"+1 (817) 542-3987","name":"Obliq","propertyId":"11200","state":"Arkansas","latitude":"-14.250928","longitude":159.479242},{"_id":"39545","address":"260 Brooklyn Road, Yogaville, Washington, 1167","phone":"+1 (842) 580-3310","name":"Honotron","propertyId":"11200","state":"New Jersey","latitude":-14.251008,"longitude":"159.479292"}]},{"_id":"91923","address":"313 Ryder Avenue, Rote, Mississippi, 1233","phone":"+1 (894) 482-2638","name":"Strozen","tennantId":"29955","state":"California","latitude":"-35.81421","longitude":"5.052144","buildings":[{"_id":"03944","address":"639 Borinquen Pl, Jeff, Rhode Island, 3418","phone":"+1 (979) 446-2494","name":"Aquazure","propertyId":"91923","state":"West Virginia","latitude":"-35.81421","longitude":null},{"_id":"81226","address":"224 Bay Avenue, Benson, Montana, 7856","phone":"+1 (865) 536-3081","name":"Virva","propertyId":"91923","state":"Guam","latitude":-35.814310000000006,"longitude":"5.052144"},{"_id":"94448","address":"906 Oxford Walk, Montura, Maine, 2961","phone":"+1 (960) 472-2808","name":"Vertide","propertyId":"91923","state":"Delaware","latitude":"-35.81421","longitude":null},{"_id":"12933","address":"823 Battery Avenue, Tecolotito, Vermont, 5919","phone":"+1 (809) 562-3610","name":"Tubalum","propertyId":"91923","state":"Puerto Rico","latitude":"-35.81421","longitude":5.052104},{"_id":"75292","address":"352 Louis Place, Ballico, American Samoa, 6935","phone":"+1 (836) 546-2007","name":"Glasstep","propertyId":"91923","state":"Ohio","latitude":null,"longitude":"5.052144"},{"_id":"58786","address":"238 Jackson Street, Snelling, Virginia, 1605","phone":"+1 (837) 590-3602","name":"Zaphire","propertyId":"91923","state":"Illinois","latitude":null,"longitude":"5.052144"},{"_id":"19254","address":"583 Wolf Place, Fannett, Idaho, 1909","phone":"+1 (990) 402-2448","name":"Kiggle","propertyId":"91923","state":"Texas","latitude":-35.814310000000006,"longitude":"5.052144"}]},{"_id":"34599","address":"968 Bergen Court, Longbranch, Hawaii, 4977","phone":"+1 (801) 422-3450","name":"Exospeed","tennantId":"29955","state":"District Of Columbia","latitude":"63.181656","longitude":"140.578284","buildings":[{"_id":"51007","address":"991 Montague Terrace, Jacksonburg, Alaska, 7480","phone":"+1 (826) 520-2176","name":"Automon","propertyId":"34599","state":"South Dakota","latitude":63.181576,"longitude":"140.578284"},{"_id":"08696","address":"744 Kossuth Place, Shepardsville, Massachusetts, 8120","phone":"+1 (927) 586-2212","name":"Zuvy","propertyId":"34599","state":"Utah","latitude":63.18155599999999,"longitude":"140.578284"},{"_id":"38890","address":"747 Pershing Loop, Cornfields, New Mexico, 2622","phone":"+1 (824) 511-3261","name":"Zentry","propertyId":"34599","state":"Michigan","latitude":"63.181656","longitude":null},{"_id":"25470","address":"631 Cheever Place, Ruckersville, North Carolina, 5621","phone":"+1 (936) 461-3927","name":"Hatology","propertyId":"34599","state":"Wyoming","latitude":"63.181656","longitude":null},{"_id":"26412","address":"763 Vandam Street, Oretta, Pennsylvania, 7848","phone":"+1 (891) 507-2801","name":"Cofine","propertyId":"34599","state":"New York","latitude":"63.181656","longitude":140.578254},{"_id":"85286","address":"174 Raleigh Place, Advance, Minnesota, 1111","phone":"+1 (980) 477-2885","name":"Minga","propertyId":"34599","state":"Louisiana","latitude":63.18155599999999,"longitude":"140.578284"},{"_id":"92411","address":"205 Blake Court, Tioga, South Carolina, 2566","phone":"+1 (927) 498-2941","name":"Genmom","propertyId":"34599","state":"Wisconsin","latitude":63.181566,"longitude":"140.578284"},{"_id":"43111","address":"673 Richardson Street, Sehili, Missouri, 3206","phone":"+1 (972) 537-3781","name":"Flotonic","propertyId":"34599","state":"Kentucky","latitude":"63.181656","longitude":140.57824399999998}]},{"_id":"38803","address":"303 Driggs Avenue, Orick, Iowa, 5665","phone":"+1 (840) 569-3113","name":"Gink","tennantId":"29955","state":"Georgia","latitude":"30.13557","longitude":"-101.987005","buildings":[{"_id":"04103","address":"872 Bedford Avenue, Hannasville, Virgin Islands, 7327","phone":"+1 (936) 588-3168","name":"Norsul","propertyId":"38803","state":"Nebraska","latitude":"30.13557","longitude":null},{"_id":"52437","address":"958 Henderson Walk, Chalfant, Oregon, 1771","phone":"+1 (930) 490-2486","name":"Zoid","propertyId":"38803","state":"Oklahoma","latitude":30.13548,"longitude":"-101.987005"},{"_id":"01206","address":"718 Woodrow Court, Avalon, Federated States Of Micronesia, 6662","phone":"+1 (859) 480-2543","name":"Darwinium","propertyId":"38803","state":"Arizona","latitude":"30.13557","longitude":null},{"_id":"98828","address":"413 Irwin Street, Elrama, Indiana, 4066","phone":"+1 (955) 588-2057","name":"Zilodyne","propertyId":"38803","state":"Connecticut","latitude":"30.13557","longitude":-101.987045},{"_id":"51244","address":"808 Imlay Street, Ezel, Florida, 9202","phone":"+1 (907) 485-3060","name":"Confrenzy","propertyId":"38803","state":"Colorado","latitude":30.13549,"longitude":"-101.987005"},{"_id":"84880","address":"817 Interborough Parkway, Garfield, Maryland, 7896","phone":"+1 (869) 484-2821","name":"Emtrac","propertyId":"38803","state":"Alabama","latitude":"30.13557","longitude":-101.987055},{"_id":"90009","address":"457 Commercial Street, Davenport, Kansas, 8582","phone":"+1 (801) 418-3924","name":"Klugger","propertyId":"38803","state":"Arkansas","latitude":"30.13557","longitude":null}]},{"_id":"89408","address":"663 Jamison Lane, Mapletown, Rhode Island, 1277","phone":"+1 (820) 502-3081","name":"Talkola","tennantId":"29955","state":"West Virginia","latitude":"-45.95265","longitude":"86.59907","buildings":[{"_id":"24839","address":"764 Himrod Street, Monument, Montana, 6689","phone":"+1 (933) 502-3134","name":"Solaren","propertyId":"89408","state":"Guam","latitude":null,"longitude":"86.59907"},{"_id":"38964","address":"159 Sedgwick Street, Dundee, Maine, 8368","phone":"+1 (827) 535-3134","name":"Zipak","propertyId":"89408","state":"Delaware","latitude":"-45.95265","longitude":86.59902},{"_id":"75527","address":"812 Stoddard Place, Felt, Vermont, 5357","phone":"+1 (974) 495-2622","name":"Comvoy","propertyId":"89408","state":"Puerto Rico","latitude":null,"longitude":"86.59907"},{"_id":"07127","address":"396 Court Square, Noxen, American Samoa, 5920","phone":"+1 (806) 438-2327","name":"Naxdis","propertyId":"89408","state":"Ohio","latitude":"-45.95265","longitude":null},{"_id":"75179","address":"923 Vernon Avenue, Cashtown, Virginia, 9136","phone":"+1 (809) 527-3537","name":"Tersanki","propertyId":"89408","state":"Illinois","latitude":"-45.95265","longitude":null},{"_id":"52429","address":"997 Vandervoort Place, Dante, Idaho, 708","phone":"+1 (981) 472-3361","name":"Nimon","propertyId":"89408","state":"Texas","latitude":"-45.95265","longitude":86.59903},{"_id":"57713","address":"121 Pleasant Place, Waumandee, Palau, 7826","phone":"+1 (861) 480-3599","name":"Elpro","propertyId":"89408","state":"Tennessee","latitude":-45.95275,"longitude":"86.59907"}]},{"_id":"23806","address":"922 Lexington Avenue, Nadine, Alaska, 5211","phone":"+1 (922) 565-3994","name":"Sulfax","tennantId":"29955","state":"South Dakota","latitude":"-32.476116","longitude":"114.85609","buildings":[{"_id":"39806","address":"163 Kenilworth Place, Glenshaw, Massachusetts, 1251","phone":"+1 (912) 526-2635","name":"Vixo","propertyId":"23806","state":"Utah","latitude":-32.476206,"longitude":"114.85609"},{"_id":"66371","address":"476 Remsen Street, Sanborn, New Mexico, 9757","phone":"+1 (881) 468-2859","name":"Enerforce","propertyId":"23806","state":"Michigan","latitude":-32.476216,"longitude":"114.85609"},{"_id":"94679","address":"412 Dorchester Road, Worton, North Carolina, 9825","phone":"+1 (945) 414-2801","name":"Musix","propertyId":"23806","state":"Wyoming","latitude":null,"longitude":"114.85609"},{"_id":"11518","address":"546 Java Street, Richmond, Pennsylvania, 264","phone":"+1 (917) 446-3684","name":"Telepark","propertyId":"23806","state":"New York","latitude":"-32.476116","longitude":null},{"_id":"17978","address":"123 Butler Place, Hebron, Minnesota, 5207","phone":"+1 (877) 496-2166","name":"Hometown","propertyId":"23806","state":"Louisiana","latitude":-32.476206,"longitude":"114.85609"}]},{"_id":"42580","address":"625 Herzl Street, Gordon, Virgin Islands, 2030","phone":"+1 (889) 519-2664","name":"Portalis","tennantId":"29955","state":"Nebraska","latitude":"-9.541779","longitude":"169.015243","buildings":[{"_id":"77706","address":"433 Commerce Street, Caroleen, Oregon, 3134","phone":"+1 (992) 571-2365","name":"Softmicro","propertyId":"42580","state":"Oklahoma","latitude":"-9.541779","longitude":null},{"_id":"55298","address":"365 Alice Court, Cliffside, Federated States Of Micronesia, 1976","phone":"+1 (872) 531-2996","name":"Mantro","propertyId":"42580","state":"Arizona","latitude":"-9.541779","longitude":169.015193},{"_id":"84390","address":"152 Kent Street, Barclay, Indiana, 787","phone":"+1 (916) 507-2754","name":"Opticon","propertyId":"42580","state":"Connecticut","latitude":-9.541879,"longitude":"169.015243"},{"_id":"61696","address":"686 Madison Place, Eureka, Florida, 5365","phone":"+1 (863) 439-3775","name":"Tripsch","propertyId":"42580","state":"Colorado","latitude":null,"longitude":"169.015243"},{"_id":"51605","address":"978 Church Avenue, Gila, Maryland, 8938","phone":"+1 (999) 464-2093","name":"Kyaguru","propertyId":"42580","state":"Alabama","latitude":"-9.541779","longitude":169.01520299999999},{"_id":"94035","address":"105 Withers Street, Stollings, Kansas, 1655","phone":"+1 (803) 524-3915","name":"Trasola","propertyId":"42580","state":"Arkansas","latitude":"-9.541779","longitude":null},{"_id":"42991","address":"266 Manhattan Avenue, Hasty, Washington, 3176","phone":"+1 (806) 487-2949","name":"Krag","propertyId":"42580","state":"New Jersey","latitude":-9.541869,"longitude":"169.015243"},{"_id":"31855","address":"348 Devoe Street, Whitehaven, Mississippi, 3117","phone":"+1 (901) 586-3663","name":"Visualix","propertyId":"42580","state":"California","latitude":null,"longitude":"169.015243"},{"_id":"25541","address":"371 Miller Place, Hillsboro, Rhode Island, 8810","phone":"+1 (806) 536-2673","name":"Dognosis","propertyId":"42580","state":"West Virginia","latitude":"-9.541779","longitude":169.01520299999999}]}]},{"_id":"72673","isActive":true,"logo":"images/3.jpg","picture":"https://placeholder.com/wp-content/uploads/2018/10/placeholder.com-logo3.jpg","name":"TROLLERY","phone":"+1 (928) 460-3319","address":"468 Matthews Place, Robinson, Montana, 7420","email":"trollery@trollery.info","properties":[{"_id":"79907","address":"873 Falmouth Street, Franklin, Guam, 1763","phone":"+1 (894) 597-2439","name":"Temorak","tennantId":"72673","state":"Maine","latitude":"-28.350485","longitude":"-170.455415","buildings":[{"_id":"23448","address":"952 Dumont Avenue, Faxon, Delaware, 3740","phone":"+1 (925) 500-3872","name":"Ecratic","propertyId":"79907","state":"Vermont","latitude":"-28.350485","longitude":null},{"_id":"99512","address":"839 Gaylord Drive, Chesapeake, Puerto Rico, 1970","phone":"+1 (897) 565-3096","name":"Supportal","propertyId":"79907","state":"American Samoa","latitude":"-28.350485","longitude":null},{"_id":"76880","address":"808 Catherine Street, Fivepointville, Ohio, 2385","phone":"+1 (949) 540-3455","name":"Endipine","propertyId":"79907","state":"Virginia","latitude":"-28.350485","longitude":-170.455445},{"_id":"10133","address":"219 Fuller Place, Muir, Illinois, 3406","phone":"+1 (905) 416-2834","name":"Nutralab","propertyId":"79907","state":"Idaho","latitude":"-28.350485","longitude":null},{"_id":"69344","address":"849 Highlawn Avenue, Orin, Texas, 836","phone":"+1 (813) 491-2796","name":"Kneedles","propertyId":"79907","state":"Palau","latitude":"-28.350485","longitude":null},{"_id":"50823","address":"529 Windsor Place, Sandston, Tennessee, 2258","phone":"+1 (990) 491-3677","name":"Panzent","propertyId":"79907","state":"Marshall Islands","latitude":"-28.350485","longitude":null}]},{"_id":"48194","address":"444 Baughman Place, Croom, Utah, 6442","phone":"+1 (856) 424-2234","name":"Paragonia","tennantId":"72673","state":"New Mexico","latitude":"-84.075958","longitude":"1.417913","buildings":[{"_id":"81986","address":"404 Folsom Place, Fingerville, Michigan, 132","phone":"+1 (958) 453-2091","name":"Pawnagra","propertyId":"48194","state":"North Carolina","latitude":null,"longitude":"1.417913"},{"_id":"09662","address":"440 Woodhull Street, Dixie, Wyoming, 8686","phone":"+1 (846) 488-3298","name":"Isotrack","propertyId":"48194","state":"Pennsylvania","latitude":"-84.075958","longitude":null},{"_id":"37955","address":"972 Dahill Road, Martinez, New York, 6703","phone":"+1 (805) 419-3716","name":"Junipoor","propertyId":"48194","state":"Minnesota","latitude":"-84.075958","longitude":1.417873},{"_id":"99190","address":"549 Bancroft Place, Kieler, Louisiana, 2519","phone":"+1 (868) 567-3756","name":"Empirica","propertyId":"48194","state":"South Carolina","latitude":"-84.075958","longitude":1.4178629999999999},{"_id":"37759","address":"794 Tilden Avenue, Urbana, Wisconsin, 1624","phone":"+1 (978) 581-2342","name":"Quonata","propertyId":"48194","state":"Missouri","latitude":null,"longitude":"1.417913"},{"_id":"63414","address":"257 Centre Street, Grayhawk, Kentucky, 6761","phone":"+1 (813) 495-2885","name":"Earbang","propertyId":"48194","state":"New Hampshire","latitude":"-84.075958","longitude":1.417873},{"_id":"61834","address":"150 Dodworth Street, Titanic, North Dakota, 4660","phone":"+1 (974) 558-2446","name":"Lingoage","propertyId":"48194","state":"Iowa","latitude":-84.076038,"longitude":"1.417913"},{"_id":"96213","address":"710 Lincoln Terrace, Shrewsbury, Georgia, 9330","phone":"+1 (813) 540-2606","name":"Kengen","propertyId":"48194","state":"Virgin Islands","latitude":null,"longitude":"1.417913"}]},{"_id":"94125","address":"824 Bay Parkway, Rivereno, Oklahoma, 9936","phone":"+1 (888) 466-3869","name":"Dentrex","tennantId":"72673","state":"Federated States Of Micronesia","latitude":"-60.230492","longitude":"127.057262","buildings":[{"_id":"61411","address":"527 Indiana Place, Tolu, Arizona, 6646","phone":"+1 (956) 478-3095","name":"Digigene","propertyId":"94125","state":"Indiana","latitude":"-60.230492","longitude":127.05721199999999},{"_id":"39966","address":"757 Poplar Avenue, Dyckesville, Connecticut, 5635","phone":"+1 (992) 466-2052","name":"Entropix","propertyId":"94125","state":"Florida","latitude":"-60.230492","longitude":127.05721199999999},{"_id":"06705","address":"257 Newport Street, Richford, Colorado, 8903","phone":"+1 (896) 530-3062","name":"Phuel","propertyId":"94125","state":"Maryland","latitude":null,"longitude":"127.057262"},{"_id":"73597","address":"189 Melba Court, Nicut, Alabama, 2456","phone":"+1 (880) 486-2494","name":"Greeker","propertyId":"94125","state":"Kansas","latitude":null,"longitude":"127.057262"},{"_id":"22262","address":"695 Scholes Street, Yukon, Arkansas, 9065","phone":"+1 (915) 450-2267","name":"Otherway","propertyId":"94125","state":"Washington","latitude":"-60.230492","longitude":null},{"_id":"51693","address":"302 Bryant Street, Hollymead, New Jersey, 4607","phone":"+1 (947) 567-3952","name":"Zillacon","propertyId":"94125","state":"Mississippi","latitude":-60.230582,"longitude":"127.057262"},{"_id":"79212","address":"572 Fair Street, Chautauqua, California, 9646","phone":"+1 (882) 471-3786","name":"Multron","propertyId":"94125","state":"Rhode Island","latitude":-60.230592,"longitude":"127.057262"},{"_id":"35009","address":"327 Willmohr Street, Maxville, West Virginia, 1602","phone":"+1 (835) 557-2723","name":"Polarium","propertyId":"94125","state":"Montana","latitude":null,"longitude":"127.057262"},{"_id":"55908","address":"480 Aberdeen Street, Gilgo, Guam, 5368","phone":"+1 (892) 499-3161","name":"Avenetro","propertyId":"94125","state":"Maine","latitude":"-60.230492","longitude":null}]},{"_id":"51147","address":"854 Seigel Court, Fostoria, Delaware, 9559","phone":"+1 (858) 432-3912","name":"Comtest","tennantId":"72673","state":"Vermont","latitude":"-26.347873","longitude":"88.172348","buildings":[{"_id":"07871","address":"984 Krier Place, Cawood, Puerto Rico, 9291","phone":"+1 (818) 526-3662","name":"Scentric","propertyId":"51147","state":"American Samoa","latitude":"-26.347873","longitude":null},{"_id":"29310","address":"217 Schenck Place, Orovada, Ohio, 9392","phone":"+1 (844) 573-3193","name":"Datacator","propertyId":"51147","state":"Virginia","latitude":"-26.347873","longitude":88.172308},{"_id":"02794","address":"882 Dictum Court, Muse, Illinois, 4904","phone":"+1 (988) 427-2217","name":"Cormoran","propertyId":"51147","state":"Idaho","latitude":-26.347973,"longitude":"88.172348"},{"_id":"04746","address":"703 Lefferts Avenue, Glenbrook, Texas, 9530","phone":"+1 (857) 595-2431","name":"Ebidco","propertyId":"51147","state":"Palau","latitude":"-26.347873","longitude":88.172318},{"_id":"16386","address":"925 Fulton Street, Bayview, Tennessee, 8845","phone":"+1 (850) 521-2373","name":"Senmao","propertyId":"51147","state":"Marshall Islands","latitude":"-26.347873","longitude":88.172308},{"_id":"97107","address":"556 Rost Place, Haring, Northern Mariana Islands, 1512","phone":"+1 (821) 572-2164","name":"Accuprint","propertyId":"51147","state":"Hawaii","latitude":null,"longitude":"88.172348"}]},{"_id":"06638","address":"235 India Street, Wakarusa, Michigan, 4412","phone":"+1 (810) 480-3091","name":"Furnigeer","tennantId":"72673","state":"North Carolina","latitude":"67.732693","longitude":"64.560234","buildings":[{"_id":"62338","address":"715 Sackman Street, Makena, Wyoming, 4691","phone":"+1 (947) 573-2096","name":"Senmei","propertyId":"06638","state":"Pennsylvania","latitude":"67.732693","longitude":64.56018399999999},{"_id":"11512","address":"331 Bartlett Place, Wakulla, New York, 4150","phone":"+1 (901) 483-2021","name":"Bisba","propertyId":"06638","state":"Minnesota","latitude":67.732603,"longitude":"64.560234"},{"_id":"60992","address":"127 Sheffield Avenue, Herbster, Louisiana, 8940","phone":"+1 (934) 509-2166","name":"Genmy","propertyId":"06638","state":"South Carolina","latitude":67.732593,"longitude":"64.560234"},{"_id":"98427","address":"628 Verona Street, Brazos, Wisconsin, 7870","phone":"+1 (815) 430-2201","name":"Sentia","propertyId":"06638","state":"Missouri","latitude":"67.732693","longitude":64.560194},{"_id":"70312","address":"575 Girard Street, Martell, Kentucky, 7834","phone":"+1 (875) 530-2565","name":"Mantrix","propertyId":"06638","state":"New Hampshire","latitude":67.732593,"longitude":"64.560234"},{"_id":"32352","address":"644 Remsen Avenue, Aurora, North Dakota, 2742","phone":"+1 (954) 524-2334","name":"Ezentia","propertyId":"06638","state":"Iowa","latitude":null,"longitude":"64.560234"},{"_id":"23654","address":"272 Irving Avenue, Hiko, Georgia, 9131","phone":"+1 (885) 456-3871","name":"Anarco","propertyId":"06638","state":"Virgin Islands","latitude":"67.732693","longitude":64.560194}]},{"_id":"57051","address":"138 Elmwood Avenue, Catharine, Arizona, 1485","phone":"+1 (867) 587-2370","name":"Accupharm","tennantId":"72673","state":"Indiana","latitude":"73.039306","longitude":"-80.083819","buildings":[{"_id":"13808","address":"821 Friel Place, Graniteville, Connecticut, 7574","phone":"+1 (950) 560-2759","name":"Fitcore","propertyId":"57051","state":"Florida","latitude":"73.039306","longitude":null},{"_id":"50453","address":"586 Riverdale Avenue, Marshall, Colorado, 1686","phone":"+1 (838) 555-2676","name":"Xleen","propertyId":"57051","state":"Maryland","latitude":null,"longitude":"-80.083819"},{"_id":"55375","address":"445 Highland Avenue, Dargan, Alabama, 4259","phone":"+1 (907) 486-2493","name":"Exospace","propertyId":"57051","state":"Kansas","latitude":null,"longitude":"-80.083819"},{"_id":"88778","address":"500 Kaufman Place, Tooleville, Arkansas, 7461","phone":"+1 (891) 573-2115","name":"Calcula","propertyId":"57051","state":"Washington","latitude":"73.039306","longitude":-80.083859},{"_id":"87239","address":"864 Kay Court, Albany, New Jersey, 4698","phone":"+1 (897) 516-2765","name":"Melbacor","propertyId":"57051","state":"Mississippi","latitude":null,"longitude":"-80.083819"}]},{"_id":"17899","address":"535 Lyme Avenue, Leming, Puerto Rico, 2418","phone":"+1 (885) 497-3317","name":"Quadeebo","tennantId":"72673","state":"American Samoa","latitude":"28.501558","longitude":"50.859489","buildings":[{"_id":"17997","address":"811 Noll Street, Osage, Ohio, 1153","phone":"+1 (987) 406-3511","name":"Zillan","propertyId":"17899","state":"Virginia","latitude":"28.501558","longitude":null},{"_id":"34214","address":"549 Nelson Street, Harmon, Illinois, 1450","phone":"+1 (923) 499-2404","name":"Microluxe","propertyId":"17899","state":"Idaho","latitude":28.501468,"longitude":"50.859489"},{"_id":"28547","address":"205 Conselyea Street, Falmouth, Texas, 5482","phone":"+1 (933) 458-3751","name":"Globoil","propertyId":"17899","state":"Palau","latitude":null,"longitude":"50.859489"},{"_id":"58051","address":"343 Pierrepont Street, Greensburg, Tennessee, 9986","phone":"+1 (994) 431-2990","name":"Intrawear","propertyId":"17899","state":"Marshall Islands","latitude":"28.501558","longitude":null},{"_id":"62947","address":"973 Rockwell Place, Warsaw, Northern Mariana Islands, 8373","phone":"+1 (979) 531-3630","name":"Oceanica","propertyId":"17899","state":"Hawaii","latitude":"28.501558","longitude":null},{"_id":"91949","address":"942 Thatford Avenue, Ypsilanti, District Of Columbia, 4904","phone":"+1 (989) 448-3640","name":"Twiggery","propertyId":"17899","state":"Alaska","latitude":"28.501558","longitude":50.859459},{"_id":"06356","address":"874 Brooklyn Avenue, Nettie, South Dakota, 5373","phone":"+1 (885) 494-2586","name":"Rubadub","propertyId":"17899","state":"Massachusetts","latitude":null,"longitude":"50.859489"},{"_id":"19226","address":"939 Granite Street, Springville, Utah, 5665","phone":"+1 (888) 501-2607","name":"Geekol","propertyId":"17899","state":"New Mexico","latitude":null,"longitude":"50.859489"}]}]},{"_id":"95100","isActive":true,"logo":"images/4.jpg","picture":"https://placeholder.com/wp-content/uploads/2018/10/placeholder.com-logo3.jpg","name":"KNOWLYSIS","phone":"+1 (943) 422-3377","address":"124 Woodpoint Road, Martinsville, Ohio, 9843","email":"knowlysis@knowlysis.ca","properties":[{"_id":"70764","address":"386 Ridgewood Avenue, Bagtown, Virginia, 638","phone":"+1 (959) 581-3656","name":"Centice","tennantId":"95100","state":"Illinois","latitude":"52.410834","longitude":"-106.42514","buildings":[{"_id":"23278","address":"315 Herkimer Street, Wikieup, Idaho, 5824","phone":"+1 (953) 443-3304","name":"Luxuria","propertyId":"70764","state":"Texas","latitude":"52.410834","longitude":-106.42519},{"_id":"07288","address":"267 Lenox Road, Sussex, Palau, 1814","phone":"+1 (839) 468-2616","name":"Bedder","propertyId":"70764","state":"Tennessee","latitude":"52.410834","longitude":-106.42517},{"_id":"69367","address":"889 Jardine Place, Sena, Marshall Islands, 5369","phone":"+1 (919) 477-2856","name":"Jumpstack","propertyId":"70764","state":"Northern Mariana Islands","latitude":null,"longitude":"-106.42514"},{"_id":"84934","address":"773 Ridge Court, Kingstowne, Hawaii, 5902","phone":"+1 (877) 593-3753","name":"Momentia","propertyId":"70764","state":"District Of Columbia","latitude":52.410754000000004,"longitude":"-106.42514"},{"_id":"09045","address":"165 Voorhies Avenue, Fairhaven, Alaska, 8987","phone":"+1 (942) 577-3072","name":"Voratak","propertyId":"70764","state":"South Dakota","latitude":52.410744,"longitude":"-106.42514"},{"_id":"57596","address":"748 Terrace Place, Brenton, Massachusetts, 6493","phone":"+1 (964) 495-3551","name":"Baluba","propertyId":"70764","state":"Utah","latitude":"52.410834","longitude":-106.42519},{"_id":"84713","address":"136 Downing Street, Adelino, New Mexico, 2067","phone":"+1 (937) 512-2466","name":"Digique","propertyId":"70764","state":"Michigan","latitude":null,"longitude":"-106.42514"},{"_id":"00374","address":"779 Kingston Avenue, Caron, North Carolina, 6781","phone":"+1 (968) 410-3753","name":"Terragen","propertyId":"70764","state":"Wyoming","latitude":52.410734,"longitude":"-106.42514"}]},{"_id":"37170","address":"914 Paerdegat Avenue, Biehle, Minnesota, 3157","phone":"+1 (992) 600-3867","name":"Sonique","tennantId":"95100","state":"Louisiana","latitude":"77.366998","longitude":"140.312314","buildings":[{"_id":"58750","address":"868 Dewitt Avenue, Frank, South Carolina, 8436","phone":"+1 (832) 443-3559","name":"Omatom","propertyId":"37170","state":"Wisconsin","latitude":"77.366998","longitude":null},{"_id":"70448","address":"799 Madison Street, Morningside, Missouri, 3855","phone":"+1 (982) 412-3063","name":"Austech","propertyId":"37170","state":"Kentucky","latitude":"77.366998","longitude":null},{"_id":"20570","address":"548 Sunnyside Court, Cetronia, New Hampshire, 3000","phone":"+1 (859) 443-2587","name":"Bulljuice","propertyId":"37170","state":"North Dakota","latitude":77.366908,"longitude":"140.312314"},{"_id":"47514","address":"893 Beach Place, Bethpage, Iowa, 4368","phone":"+1 (809) 519-3091","name":"Snowpoke","propertyId":"37170","state":"Georgia","latitude":"77.366998","longitude":null},{"_id":"75153","address":"677 Glenmore Avenue, Whitewater, Virgin Islands, 2022","phone":"+1 (866) 557-2433","name":"Syntac","propertyId":"37170","state":"Nebraska","latitude":null,"longitude":"140.312314"},{"_id":"22946","address":"991 Amersfort Place, Gwynn, Oregon, 1262","phone":"+1 (915) 580-3264","name":"Elentrix","propertyId":"37170","state":"Oklahoma","latitude":"77.366998","longitude":null},{"_id":"14860","address":"907 Cadman Plaza, Emison, Federated States Of Micronesia, 8362","phone":"+1 (882) 558-3253","name":"Medifax","propertyId":"37170","state":"Arizona","latitude":"77.366998","longitude":140.312264},{"_id":"05821","address":"558 Oak Street, Kipp, Indiana, 689","phone":"+1 (974) 412-3644","name":"Velos","propertyId":"37170","state":"Connecticut","latitude":null,"longitude":"140.312314"},{"_id":"28989","address":"782 Degraw Street, Carrizo, Florida, 8849","phone":"+1 (849) 426-3349","name":"Velity","propertyId":"37170","state":"Colorado","latitude":"77.366998","longitude":null}]},{"_id":"94825","address":"787 Duryea Place, Glenville, Maryland, 1692","phone":"+1 (847) 486-2752","name":"Plasmox","tennantId":"95100","state":"Alabama","latitude":"-34.789446","longitude":"-77.09027","buildings":[{"_id":"42899","address":"252 Lawrence Street, Cloverdale, Kansas, 9529","phone":"+1 (966) 542-3481","name":"Toyletry","propertyId":"94825","state":"Arkansas","latitude":"-34.789446","longitude":null},{"_id":"18119","address":"411 Dearborn Court, Efland, Washington, 7081","phone":"+1 (843) 529-2777","name":"Ontality","propertyId":"94825","state":"New Jersey","latitude":-34.789536,"longitude":"-77.09027"},{"_id":"68908","address":"275 Guernsey Street, Carbonville, Mississippi, 6660","phone":"+1 (977) 424-2634","name":"Poochies","propertyId":"94825","state":"California","latitude":-34.789525999999995,"longitude":"-77.09027"},{"_id":"79936","address":"291 Aviation Road, Hendersonville, Rhode Island, 3104","phone":"+1 (811) 525-2670","name":"Ecosys","propertyId":"94825","state":"West Virginia","latitude":"-34.789446","longitude":-77.09031},{"_id":"49943","address":"467 Adler Place, Belva, Montana, 5116","phone":"+1 (893) 462-2330","name":"Zanymax","propertyId":"94825","state":"Guam","latitude":"-34.789446","longitude":-77.0903},{"_id":"31674","address":"928 Madeline Court, Needmore, Maine, 1323","phone":"+1 (889) 574-3439","name":"Electonic","propertyId":"94825","state":"Delaware","latitude":"-34.789446","longitude":-77.0903},{"_id":"76932","address":"776 Farragut Road, Derwood, Vermont, 5067","phone":"+1 (919) 419-2256","name":"Irack","propertyId":"94825","state":"Puerto Rico","latitude":null,"longitude":"-77.09027"},{"_id":"02376","address":"887 Lorraine Street, Harborton, American Samoa, 5008","phone":"+1 (908) 587-3454","name":"Geostele","propertyId":"94825","state":"Ohio","latitude":"-34.789446","longitude":null},{"_id":"77960","address":"485 Gem Street, Bangor, Virginia, 3164","phone":"+1 (860) 460-3498","name":"Coriander","propertyId":"94825","state":"Illinois","latitude":-34.789546,"longitude":"-77.09027"}]},{"_id":"49151","address":"470 Bond Street, Spokane, Idaho, 9090","phone":"+1 (951) 584-3481","name":"Insurity","tennantId":"95100","state":"Texas","latitude":"-59.484017","longitude":"173.700666","buildings":[{"_id":"45304","address":"912 Bainbridge Street, Drytown, Palau, 5765","phone":"+1 (833) 412-3631","name":"Maximind","propertyId":"49151","state":"Tennessee","latitude":"-59.484017","longitude":173.70061600000002},{"_id":"47106","address":"288 Pooles Lane, Crumpler, Marshall Islands, 6529","phone":"+1 (884) 442-3003","name":"Savvy","propertyId":"49151","state":"Northern Mariana Islands","latitude":null,"longitude":"173.700666"},{"_id":"92983","address":"136 Provost Street, Riner, Hawaii, 7060","phone":"+1 (983) 567-2054","name":"Hyplex","propertyId":"49151","state":"District Of Columbia","latitude":"-59.484017","longitude":null},{"_id":"51006","address":"401 Chestnut Avenue, Roberts, Alaska, 983","phone":"+1 (964) 540-2151","name":"Extragene","propertyId":"49151","state":"South Dakota","latitude":-59.484097,"longitude":"173.700666"},{"_id":"45235","address":"606 Wallabout Street, Byrnedale, Massachusetts, 9883","phone":"+1 (871) 587-3001","name":"Kenegy","propertyId":"49151","state":"Utah","latitude":-59.484117000000005,"longitude":"173.700666"}]},{"_id":"43311","address":"390 Dakota Place, Cavalero, South Carolina, 9243","phone":"+1 (887) 597-2856","name":"Columella","tennantId":"95100","state":"Wisconsin","latitude":"76.181026","longitude":"116.03477","buildings":[{"_id":"37965","address":"184 Hubbard Street, Romeville, Missouri, 5829","phone":"+1 (843) 551-2751","name":"Exerta","propertyId":"43311","state":"Kentucky","latitude":"76.181026","longitude":null},{"_id":"54789","address":"359 Stryker Street, Lavalette, New Hampshire, 6000","phone":"+1 (837) 461-3114","name":"Bolax","propertyId":"43311","state":"North Dakota","latitude":76.180926,"longitude":"116.03477"},{"_id":"00555","address":"250 Forest Place, Greer, Iowa, 8637","phone":"+1 (934) 519-3185","name":"Vetron","propertyId":"43311","state":"Georgia","latitude":76.180946,"longitude":"116.03477"},{"_id":"41920","address":"253 Brighton Court, Escondida, Virgin Islands, 8053","phone":"+1 (937) 569-2539","name":"Ontagene","propertyId":"43311","state":"Nebraska","latitude":76.180936,"longitude":"116.03477"},{"_id":"73310","address":"180 Colin Place, Waterview, Oregon, 7217","phone":"+1 (977) 495-2108","name":"Sarasonic","propertyId":"43311","state":"Oklahoma","latitude":"76.181026","longitude":116.03473}]},{"_id":"74000","address":"598 Williamsburg Street, Chemung, Kansas, 5606","phone":"+1 (998) 554-2770","name":"Grainspot","tennantId":"95100","state":"Arkansas","latitude":"-55.849789","longitude":"-52.800545","buildings":[{"_id":"31721","address":"738 Freeman Street, Ola, Washington, 7819","phone":"+1 (895) 526-2392","name":"Bitendrex","propertyId":"74000","state":"New Jersey","latitude":null,"longitude":"-52.800545"},{"_id":"26567","address":"885 Lamont Court, Soudan, Mississippi, 6949","phone":"+1 (939) 479-3694","name":"Securia","propertyId":"74000","state":"California","latitude":-55.849869,"longitude":"-52.800545"},{"_id":"04376","address":"604 McDonald Avenue, Durham, Rhode Island, 7813","phone":"+1 (991) 416-2828","name":"Zounds","propertyId":"74000","state":"West Virginia","latitude":"-55.849789","longitude":null},{"_id":"39730","address":"977 Apollo Street, Dorneyville, Montana, 9061","phone":"+1 (831) 546-3180","name":"Exostream","propertyId":"74000","state":"Guam","latitude":"-55.849789","longitude":null},{"_id":"08650","address":"997 Anna Court, Fairlee, Maine, 8731","phone":"+1 (860) 424-2388","name":"Assitia","propertyId":"74000","state":"Delaware","latitude":"-55.849789","longitude":-52.800585},{"_id":"44510","address":"160 Nova Court, Cucumber, Vermont, 3206","phone":"+1 (987) 444-3144","name":"Zytrek","propertyId":"74000","state":"Puerto Rico","latitude":"-55.849789","longitude":null},{"_id":"71788","address":"294 Moffat Street, Gibsonia, American Samoa, 3283","phone":"+1 (934) 589-3356","name":"Rodeomad","propertyId":"74000","state":"Ohio","latitude":-55.849879,"longitude":"-52.800545"},{"_id":"87566","address":"824 Tudor Terrace, Elliott, Virginia, 6251","phone":"+1 (946) 514-2587","name":"Entogrok","propertyId":"74000","state":"Illinois","latitude":"-55.849789","longitude":-52.800585},{"_id":"69070","address":"439 Calder Place, Rose, Idaho, 184","phone":"+1 (899) 483-3163","name":"Pharmex","propertyId":"74000","state":"Texas","latitude":null,"longitude":"-52.800545"}]},{"_id":"63598","address":"685 Barwell Terrace, Grantville, Palau, 9660","phone":"+1 (871) 471-3949","name":"Bluplanet","tennantId":"95100","state":"Tennessee","latitude":"21.528748","longitude":"124.667617","buildings":[{"_id":"07639","address":"250 Erasmus Street, Crawfordsville, Marshall Islands, 1294","phone":"+1 (918) 512-2542","name":"Aquoavo","propertyId":"63598","state":"Northern Mariana Islands","latitude":"21.528748","longitude":124.66757700000001},{"_id":"74638","address":"271 Dahlgreen Place, Abrams, Hawaii, 9117","phone":"+1 (888) 498-2082","name":"Combot","propertyId":"63598","state":"District Of Columbia","latitude":null,"longitude":"124.667617"},{"_id":"98745","address":"417 Grattan Street, Walton, Alaska, 6340","phone":"+1 (816) 472-2737","name":"Bytrex","propertyId":"63598","state":"South Dakota","latitude":21.528658,"longitude":"124.667617"},{"_id":"69257","address":"285 Brigham Street, Wilmington, Massachusetts, 5507","phone":"+1 (828) 470-2634","name":"Papricut","propertyId":"63598","state":"Utah","latitude":21.528658,"longitude":"124.667617"},{"_id":"23159","address":"227 Cyrus Avenue, Delshire, New Mexico, 2510","phone":"+1 (934) 437-3582","name":"Entality","propertyId":"63598","state":"Michigan","latitude":"21.528748","longitude":124.667567},{"_id":"47231","address":"724 Lake Place, Springhill, North Carolina, 2413","phone":"+1 (870) 504-3254","name":"Gronk","propertyId":"63598","state":"Wyoming","latitude":null,"longitude":"124.667617"},{"_id":"73335","address":"484 Fayette Street, Alamo, Pennsylvania, 8982","phone":"+1 (909) 541-3206","name":"Gonkle","propertyId":"63598","state":"New York","latitude":null,"longitude":"124.667617"}]},{"_id":"33299","address":"334 Tapscott Street, Ronco, Missouri, 9913","phone":"+1 (924) 427-3903","name":"Handshake","tennantId":"95100","state":"Kentucky","latitude":"-31.036318","longitude":"-30.154359","buildings":[{"_id":"79699","address":"834 Vermont Court, Canterwood, New Hampshire, 3975","phone":"+1 (954) 600-2712","name":"Recritube","propertyId":"33299","state":"North Dakota","latitude":"-31.036318","longitude":null},{"_id":"09820","address":"547 Holt Court, Yettem, Iowa, 3514","phone":"+1 (927) 561-2092","name":"Cinesanct","propertyId":"33299","state":"Georgia","latitude":"-31.036318","longitude":null},{"_id":"10237","address":"556 Hampton Avenue, Watchtower, Virgin Islands, 6219","phone":"+1 (940) 407-3451","name":"Animalia","propertyId":"33299","state":"Nebraska","latitude":"-31.036318","longitude":-30.154409},{"_id":"12840","address":"968 Drew Street, Floriston, Oregon, 4673","phone":"+1 (919) 407-2121","name":"Tropoli","propertyId":"33299","state":"Oklahoma","latitude":"-31.036318","longitude":null},{"_id":"37573","address":"827 Beard Street, Lafferty, Federated States Of Micronesia, 5865","phone":"+1 (961) 497-2462","name":"Multiflex","propertyId":"33299","state":"Arizona","latitude":-31.036418,"longitude":"-30.154359"},{"_id":"14800","address":"109 Emerson Place, Rosine, Indiana, 9647","phone":"+1 (972) 417-3322","name":"Medicroix","propertyId":"33299","state":"Connecticut","latitude":null,"longitude":"-30.154359"},{"_id":"69538","address":"162 Gold Street, Kanauga, Florida, 1946","phone":"+1 (931) 443-2359","name":"Viasia","propertyId":"33299","state":"Colorado","latitude":-31.036408,"longitude":"-30.154359"},{"_id":"51357","address":"173 Monroe Place, Wawona, Maryland, 7849","phone":"+1 (821) 554-3985","name":"Splinx","propertyId":"33299","state":"Alabama","latitude":-31.036408,"longitude":"-30.154359"}]},{"_id":"02547","address":"695 Hewes Street, Manitou, Washington, 1467","phone":"+1 (943) 427-3944","name":"Zytrac","tennantId":"95100","state":"New Jersey","latitude":"20.316844","longitude":"-99.283799","buildings":[{"_id":"13258","address":"245 Woods Place, Weogufka, Mississippi, 1833","phone":"+1 (955) 597-2041","name":"Acumentor","propertyId":"02547","state":"California","latitude":null,"longitude":"-99.283799"},{"_id":"95117","address":"170 Hendrickson Street, Sunwest, Rhode Island, 1334","phone":"+1 (820) 567-3408","name":"Konnect","propertyId":"02547","state":"West Virginia","latitude":null,"longitude":"-99.283799"},{"_id":"57539","address":"349 Powers Street, Teasdale, Montana, 600","phone":"+1 (960) 508-2223","name":"Recognia","propertyId":"02547","state":"Guam","latitude":"20.316844","longitude":null},{"_id":"08965","address":"534 Lake Street, Elfrida, Maine, 5153","phone":"+1 (925) 473-2312","name":"Dadabase","propertyId":"02547","state":"Delaware","latitude":null,"longitude":"-99.283799"},{"_id":"99154","address":"319 Cooper Street, Craig, Vermont, 9438","phone":"+1 (995) 567-2099","name":"Tubesys","propertyId":"02547","state":"Puerto Rico","latitude":"20.316844","longitude":null},{"_id":"57411","address":"413 Linden Boulevard, Hayden, American Samoa, 9489","phone":"+1 (926) 559-2780","name":"Farmage","propertyId":"02547","state":"Ohio","latitude":"20.316844","longitude":-99.283839}]}]},{"_id":"33448","isActive":true,"logo":"images/5.jpg","picture":"https://placeholder.com/wp-content/uploads/2018/10/placeholder.com-logo3.jpg","name":"VANTAGE","phone":"+1 (966) 480-2715","address":"393 Hanover Place, Coinjock, Marshall Islands, 5297","email":"vantage@vantage.org","properties":[{"_id":"38733","address":"416 Grove Place, Brandywine, Northern Mariana Islands, 389","phone":"+1 (926) 504-3397","name":"Micronaut","tennantId":"33448","state":"Hawaii","latitude":"72.050326","longitude":"150.922821","buildings":[{"_id":"82269","address":"375 Sumner Place, Sedley, District Of Columbia, 5607","phone":"+1 (863) 521-2191","name":"Equicom","propertyId":"38733","state":"Alaska","latitude":"72.050326","longitude":null},{"_id":"48986","address":"315 Strong Place, Hall, South Dakota, 7225","phone":"+1 (907) 413-3120","name":"Ludak","propertyId":"38733","state":"Massachusetts","latitude":"72.050326","longitude":150.922771},{"_id":"34586","address":"975 Garland Court, Celeryville, Utah, 4211","phone":"+1 (983) 512-3697","name":"Emergent","propertyId":"38733","state":"New Mexico","latitude":"72.050326","longitude":150.922781},{"_id":"71201","address":"984 Georgia Avenue, Verdi, Michigan, 4987","phone":"+1 (820) 522-3925","name":"Zentime","propertyId":"38733","state":"North Carolina","latitude":72.050246,"longitude":"150.922821"},{"_id":"29895","address":"256 Milford Street, Olney, Wyoming, 9441","phone":"+1 (922) 541-2896","name":"Dognost","propertyId":"38733","state":"Pennsylvania","latitude":"72.050326","longitude":null},{"_id":"72930","address":"557 Woodbine Street, Northchase, New York, 5993","phone":"+1 (963) 571-3395","name":"Decratex","propertyId":"38733","state":"Minnesota","latitude":"72.050326","longitude":null},{"_id":"82708","address":"863 Columbia Place, Wintersburg, Louisiana, 526","phone":"+1 (882) 437-2711","name":"Plasto","propertyId":"38733","state":"South Carolina","latitude":"72.050326","longitude":null}]},{"_id":"43810","address":"242 Dunham Place, Katonah, North Dakota, 1464","phone":"+1 (921) 539-2834","name":"Petigems","tennantId":"33448","state":"Iowa","latitude":"-51.504052","longitude":"45.084791","buildings":[{"_id":"03258","address":"328 Gain Court, Dana, Georgia, 9953","phone":"+1 (906) 457-2397","name":"Zoinage","propertyId":"43810","state":"Virgin Islands","latitude":"-51.504052","longitude":45.084741},{"_id":"63250","address":"761 Agate Court, Allensworth, Nebraska, 3956","phone":"+1 (814) 545-2900","name":"Proflex","propertyId":"43810","state":"Oregon","latitude":-51.504142,"longitude":"45.084791"},{"_id":"28909","address":"869 Luquer Street, Clarence, Oklahoma, 1938","phone":"+1 (833) 419-3044","name":"Inrt","propertyId":"43810","state":"Federated States Of Micronesia","latitude":"-51.504052","longitude":45.084751000000004},{"_id":"22126","address":"110 Polar Street, Lumberton, Arizona, 9851","phone":"+1 (986) 430-2275","name":"Biolive","propertyId":"43810","state":"Indiana","latitude":-51.504152000000005,"longitude":"45.084791"},{"_id":"18556","address":"196 Montgomery Place, Wanamie, Connecticut, 2909","phone":"+1 (972) 403-2290","name":"Zerology","propertyId":"43810","state":"Florida","latitude":"-51.504052","longitude":45.084741},{"_id":"93779","address":"156 Channel Avenue, Farmers, Colorado, 1142","phone":"+1 (975) 575-3257","name":"Izzby","propertyId":"43810","state":"Maryland","latitude":"-51.504052","longitude":45.084741},{"_id":"89464","address":"356 Tech Place, Calvary, Alabama, 2273","phone":"+1 (967) 514-3853","name":"Enormo","propertyId":"43810","state":"Kansas","latitude":"-51.504052","longitude":null},{"_id":"63226","address":"863 Beverly Road, Boykin, Arkansas, 2411","phone":"+1 (884) 445-2974","name":"Egypto","propertyId":"43810","state":"Washington","latitude":"-51.504052","longitude":45.084761},{"_id":"39696","address":"979 Nichols Avenue, Johnsonburg, New Jersey, 9566","phone":"+1 (870) 476-3083","name":"Scenty","propertyId":"43810","state":"Mississippi","latitude":"-51.504052","longitude":null}]},{"_id":"24063","address":"443 Essex Street, Masthope, California, 9695","phone":"+1 (913) 584-3594","name":"Deepends","tennantId":"33448","state":"Rhode Island","latitude":"5.45637","longitude":"78.442085","buildings":[{"_id":"03709","address":"832 Foster Avenue, Baden, West Virginia, 2981","phone":"+1 (963) 423-2039","name":"Xplor","propertyId":"24063","state":"Montana","latitude":"5.45637","longitude":78.442035},{"_id":"36879","address":"926 Seaview Avenue, Logan, Guam, 8840","phone":"+1 (876) 475-3946","name":"Spherix","propertyId":"24063","state":"Maine","latitude":"5.45637","longitude":78.44204500000001},{"_id":"36811","address":"198 Ralph Avenue, Calverton, Delaware, 8155","phone":"+1 (961) 572-2173","name":"Calcu","propertyId":"24063","state":"Vermont","latitude":null,"longitude":"78.442085"},{"_id":"32792","address":"830 Coventry Road, Tuttle, Puerto Rico, 6348","phone":"+1 (883) 559-2728","name":"Namebox","propertyId":"24063","state":"American Samoa","latitude":5.45628,"longitude":"78.442085"},{"_id":"56214","address":"265 Rockaway Avenue, Malott, Ohio, 8112","phone":"+1 (937) 410-2651","name":"Gallaxia","propertyId":"24063","state":"Virginia","latitude":"5.45637","longitude":null},{"_id":"96151","address":"698 Ashford Street, Wells, Illinois, 2199","phone":"+1 (843) 555-3822","name":"Enquility","propertyId":"24063","state":"Idaho","latitude":null,"longitude":"78.442085"},{"_id":"19035","address":"233 Oriental Boulevard, Veyo, Texas, 9534","phone":"+1 (975) 593-3363","name":"Zentia","propertyId":"24063","state":"Palau","latitude":"5.45637","longitude":null}]},{"_id":"29758","address":"338 Willoughby Avenue, Fidelis, District Of Columbia, 8491","phone":"+1 (986) 422-3105","name":"Netropic","tennantId":"33448","state":"Alaska","latitude":"35.680901","longitude":"165.614872","buildings":[{"_id":"85438","address":"158 Crooke Avenue, Orviston, South Dakota, 6195","phone":"+1 (912) 545-3220","name":"Tellifly","propertyId":"29758","state":"Massachusetts","latitude":null,"longitude":"165.614872"},{"_id":"46288","address":"624 Homecrest Court, Lookingglass, Utah, 4180","phone":"+1 (933) 492-3640","name":"Autograte","propertyId":"29758","state":"New Mexico","latitude":35.680811,"longitude":"165.614872"},{"_id":"67715","address":"764 Meserole Avenue, Blende, Michigan, 6903","phone":"+1 (892) 543-3151","name":"Proxsoft","propertyId":"29758","state":"North Carolina","latitude":"35.680901","longitude":null},{"_id":"34452","address":"332 Tillary Street, Fairfield, Wyoming, 9419","phone":"+1 (892) 490-2653","name":"Quilch","propertyId":"29758","state":"Pennsylvania","latitude":"35.680901","longitude":165.61484199999998},{"_id":"67372","address":"322 Barbey Street, Caledonia, New York, 7467","phone":"+1 (999) 589-2205","name":"Gleamink","propertyId":"29758","state":"Minnesota","latitude":null,"longitude":"165.614872"},{"_id":"32308","address":"561 Visitation Place, Robinette, Louisiana, 5985","phone":"+1 (977) 540-3749","name":"Exotechno","propertyId":"29758","state":"South Carolina","latitude":null,"longitude":"165.614872"},{"_id":"74693","address":"362 Fillmore Place, Williston, Wisconsin, 9718","phone":"+1 (835) 457-3049","name":"Netplax","propertyId":"29758","state":"Missouri","latitude":null,"longitude":"165.614872"}]},{"_id":"15590","address":"972 Stuart Street, Mulino, Georgia, 7723","phone":"+1 (833) 424-2681","name":"Zentix","tennantId":"33448","state":"Virgin Islands","latitude":"87.211725","longitude":"-109.304901","buildings":[{"_id":"64598","address":"700 Boerum Place, Utting, Nebraska, 8460","phone":"+1 (975) 519-2841","name":"Mazuda","propertyId":"15590","state":"Oregon","latitude":87.211635,"longitude":"-109.304901"},{"_id":"28319","address":"258 Seacoast Terrace, Greenbush, Oklahoma, 8400","phone":"+1 (971) 556-2009","name":"Frolix","propertyId":"15590","state":"Federated States Of Micronesia","latitude":"87.211725","longitude":-109.304931},{"_id":"07035","address":"903 Vermont Street, Kenmar, Arizona, 352","phone":"+1 (903) 444-2283","name":"Remold","propertyId":"15590","state":"Indiana","latitude":87.211625,"longitude":"-109.304901"},{"_id":"56510","address":"475 Doscher Street, Roy, Connecticut, 4639","phone":"+1 (856) 540-3417","name":"Navir","propertyId":"15590","state":"Florida","latitude":"87.211725","longitude":null},{"_id":"45979","address":"265 Hendrix Street, Vicksburg, Colorado, 1171","phone":"+1 (901) 403-3946","name":"Xymonk","propertyId":"15590","state":"Maryland","latitude":87.211645,"longitude":"-109.304901"},{"_id":"02541","address":"618 Box Street, Alafaya, Alabama, 8215","phone":"+1 (830) 578-2343","name":"Bicol","propertyId":"15590","state":"Kansas","latitude":"87.211725","longitude":-109.304941},{"_id":"25863","address":"450 Carlton Avenue, Harrison, Arkansas, 8128","phone":"+1 (818) 471-3427","name":"Artworlds","propertyId":"15590","state":"Washington","latitude":87.211635,"longitude":"-109.304901"},{"_id":"53484","address":"862 Karweg Place, Stewart, New Jersey, 6170","phone":"+1 (864) 506-2551","name":"Flyboyz","propertyId":"15590","state":"Mississippi","latitude":87.211625,"longitude":"-109.304901"},{"_id":"72507","address":"684 Stillwell Avenue, Allamuchy, California, 6161","phone":"+1 (880) 452-2602","name":"Octocore","propertyId":"15590","state":"Rhode Island","latitude":"87.211725","longitude":-109.304951}]},{"_id":"53518","address":"230 Herkimer Place, Northridge, West Virginia, 3662","phone":"+1 (973) 424-2452","name":"Bovis","tennantId":"33448","state":"Montana","latitude":"-78.992773","longitude":"-97.69418","buildings":[{"_id":"04045","address":"255 Reed Street, Enoree, Guam, 2927","phone":"+1 (945) 462-3575","name":"Accusage","propertyId":"53518","state":"Maine","latitude":-78.992873,"longitude":"-97.69418"},{"_id":"69706","address":"929 Tiffany Place, Savannah, Delaware, 561","phone":"+1 (934) 423-3666","name":"Biohab","propertyId":"53518","state":"Vermont","latitude":-78.992853,"longitude":"-97.69418"},{"_id":"90441","address":"129 Hemlock Street, Highland, Puerto Rico, 2462","phone":"+1 (973) 412-3228","name":"Buzzmaker","propertyId":"53518","state":"American Samoa","latitude":-78.992863,"longitude":"-97.69418"},{"_id":"83880","address":"231 Bogart Street, Driftwood, Ohio, 2306","phone":"+1 (802) 436-3394","name":"Medesign","propertyId":"53518","state":"Virginia","latitude":"-78.992773","longitude":null},{"_id":"74119","address":"498 Knickerbocker Avenue, Newkirk, Illinois, 8331","phone":"+1 (835) 554-3905","name":"Isopop","propertyId":"53518","state":"Idaho","latitude":null,"longitude":"-97.69418"},{"_id":"43733","address":"201 Garnet Street, Nutrioso, Texas, 9830","phone":"+1 (816) 540-2786","name":"Exodoc","propertyId":"53518","state":"Palau","latitude":-78.992863,"longitude":"-97.69418"},{"_id":"32225","address":"155 Underhill Avenue, Holcombe, Tennessee, 2773","phone":"+1 (847) 433-2102","name":"Uncorp","propertyId":"53518","state":"Marshall Islands","latitude":"-78.992773","longitude":-97.69422}]},{"_id":"45735","address":"547 Prospect Avenue, Williamson, South Dakota, 2127","phone":"+1 (920) 467-2940","name":"Helixo","tennantId":"33448","state":"Massachusetts","latitude":"-78.361813","longitude":"-52.80001","buildings":[{"_id":"39047","address":"501 Utica Avenue, Rosburg, Utah, 6964","phone":"+1 (940) 486-2521","name":"Eweville","propertyId":"45735","state":"New Mexico","latitude":-78.361913,"longitude":"-52.80001"},{"_id":"69818","address":"955 Amherst Street, Shawmut, Michigan, 6524","phone":"+1 (957) 409-3252","name":"Otherside","propertyId":"45735","state":"North Carolina","latitude":"-78.361813","longitude":-52.80006},{"_id":"51741","address":"181 Rapelye Street, Sutton, Wyoming, 2513","phone":"+1 (962) 526-2874","name":"Colaire","propertyId":"45735","state":"Pennsylvania","latitude":"-78.361813","longitude":null},{"_id":"95731","address":"655 Hancock Street, Chloride, New York, 2571","phone":"+1 (924) 419-2892","name":"Hinway","propertyId":"45735","state":"Minnesota","latitude":"-78.361813","longitude":null},{"_id":"85157","address":"130 Clifford Place, Seymour, Louisiana, 5550","phone":"+1 (825) 430-2261","name":"Anixang","propertyId":"45735","state":"South Carolina","latitude":null,"longitude":"-52.80001"},{"_id":"22263","address":"577 Guider Avenue, Coaldale, Wisconsin, 7556","phone":"+1 (912) 411-2175","name":"Genekom","propertyId":"45735","state":"Missouri","latitude":null,"longitude":"-52.80001"},{"_id":"65420","address":"995 Menahan Street, Snyderville, Kentucky, 4237","phone":"+1 (862) 466-3884","name":"Imant","propertyId":"45735","state":"New Hampshire","latitude":"-78.361813","longitude":-52.80005},{"_id":"11176","address":"719 Arlington Avenue, Why, North Dakota, 5808","phone":"+1 (971) 574-3195","name":"Digitalus","propertyId":"45735","state":"Iowa","latitude":-78.361913,"longitude":"-52.80001"},{"_id":"29782","address":"311 Clarkson Avenue, Lowgap, Georgia, 7096","phone":"+1 (971) 534-2979","name":"Kyagoro","propertyId":"45735","state":"Virgin Islands","latitude":"-78.361813","longitude":null}]}]},{"_id":"71448","isActive":true,"logo":"images/6.jpg","picture":"https://placeholder.com/wp-content/uploads/2018/10/placeholder.com-logo3.jpg","name":"OBONES","phone":"+1 (947) 572-2454","address":"997 Bowery Street, Helen, Utah, 4070","email":"obones@obones.co.uk","properties":[{"_id":"87374","address":"238 Veronica Place, Sardis, New Mexico, 1262","phone":"+1 (855) 505-3163","name":"Kineticut","tennantId":"71448","state":"Michigan","latitude":"-1.816706","longitude":"-25.335458","buildings":[{"_id":"48256","address":"318 Norfolk Street, Yardville, North Carolina, 7903","phone":"+1 (912) 583-2787","name":"Qimonk","propertyId":"87374","state":"Wyoming","latitude":-1.8167959999999999,"longitude":"-25.335458"},{"_id":"19045","address":"101 Atlantic Avenue, Otranto, Pennsylvania, 5050","phone":"+1 (895) 549-2072","name":"Zedalis","propertyId":"87374","state":"New York","latitude":"-1.816706","longitude":null},{"_id":"54797","address":"735 Corbin Place, Barstow, Minnesota, 2602","phone":"+1 (807) 423-3347","name":"Slambda","propertyId":"87374","state":"Louisiana","latitude":-1.8167959999999999,"longitude":"-25.335458"},{"_id":"81562","address":"747 Cedar Street, Saranap, South Carolina, 4167","phone":"+1 (969) 434-3843","name":"Extragen","propertyId":"87374","state":"Wisconsin","latitude":null,"longitude":"-25.335458"},{"_id":"05343","address":"322 Schaefer Street, Grill, Missouri, 844","phone":"+1 (973) 544-3763","name":"Xerex","propertyId":"87374","state":"Kentucky","latitude":"-1.816706","longitude":null},{"_id":"57183","address":"261 Navy Walk, Trexlertown, New Hampshire, 6386","phone":"+1 (995) 557-3979","name":"Uxmox","propertyId":"87374","state":"North Dakota","latitude":"-1.816706","longitude":null},{"_id":"64564","address":"594 Arlington Place, Idamay, Iowa, 2732","phone":"+1 (804) 459-2837","name":"Accel","propertyId":"87374","state":"Georgia","latitude":"-1.816706","longitude":null},{"_id":"07115","address":"342 Eldert Lane, Florence, Virgin Islands, 2496","phone":"+1 (862) 484-3856","name":"Isonus","propertyId":"87374","state":"Nebraska","latitude":null,"longitude":"-25.335458"}]},{"_id":"65717","address":"784 Sullivan Place, Norris, Federated States Of Micronesia, 3679","phone":"+1 (828) 456-2931","name":"Bluegrain","tennantId":"71448","state":"Arizona","latitude":"-34.025897","longitude":"158.532927","buildings":[{"_id":"98529","address":"456 Bradford Street, Warren, Indiana, 1212","phone":"+1 (902) 424-2491","name":"Roboid","propertyId":"65717","state":"Connecticut","latitude":"-34.025897","longitude":null},{"_id":"12063","address":"833 Court Street, Forbestown, Florida, 5769","phone":"+1 (840) 565-3967","name":"Dragbot","propertyId":"65717","state":"Colorado","latitude":null,"longitude":"158.532927"},{"_id":"51847","address":"231 Ferry Place, Ventress, Maryland, 7301","phone":"+1 (957) 553-2085","name":"Frosnex","propertyId":"65717","state":"Alabama","latitude":"-34.025897","longitude":158.532887},{"_id":"02988","address":"339 Dupont Street, Frierson, Kansas, 2732","phone":"+1 (833) 587-2574","name":"Isodrive","propertyId":"65717","state":"Arkansas","latitude":-34.025987,"longitude":"158.532927"},{"_id":"75144","address":"348 Keen Court, Callaghan, Washington, 3040","phone":"+1 (835) 410-3686","name":"Marketoid","propertyId":"65717","state":"New Jersey","latitude":"-34.025897","longitude":null},{"_id":"63059","address":"560 Amboy Street, Walland, Mississippi, 5064","phone":"+1 (814) 587-2554","name":"Thredz","propertyId":"65717","state":"California","latitude":"-34.025897","longitude":null}]},{"_id":"64933","address":"991 Llama Court, Winesburg, Vermont, 2404","phone":"+1 (995) 562-3720","name":"Kindaloo","tennantId":"71448","state":"Puerto Rico","latitude":"-25.441925","longitude":"-151.602177","buildings":[{"_id":"45745","address":"351 Just Court, Crenshaw, American Samoa, 5089","phone":"+1 (914) 566-3676","name":"Grupoli","propertyId":"64933","state":"Ohio","latitude":-25.442015,"longitude":"-151.602177"},{"_id":"13179","address":"943 Sapphire Street, Sharon, Virginia, 3311","phone":"+1 (921) 542-3106","name":"Geofarm","propertyId":"64933","state":"Illinois","latitude":-25.442025,"longitude":"-151.602177"},{"_id":"81979","address":"303 Meeker Avenue, Navarre, Idaho, 9380","phone":"+1 (912) 598-2710","name":"Daycore","propertyId":"64933","state":"Texas","latitude":"-25.441925","longitude":-151.602227},{"_id":"63447","address":"519 Jodie Court, Newcastle, Palau, 1291","phone":"+1 (905) 502-2256","name":"Eyewax","propertyId":"64933","state":"Tennessee","latitude":null,"longitude":"-151.602177"},{"_id":"94321","address":"552 Wythe Avenue, Wacissa, Marshall Islands, 1437","phone":"+1 (847) 493-3139","name":"Geekus","propertyId":"64933","state":"Northern Mariana Islands","latitude":null,"longitude":"-151.602177"},{"_id":"89611","address":"264 Albee Square, Saddlebrooke, Hawaii, 7352","phone":"+1 (971) 589-2845","name":"Bezal","propertyId":"64933","state":"District Of Columbia","latitude":"-25.441925","longitude":null},{"_id":"14320","address":"386 Farragut Place, Keller, Alaska, 1519","phone":"+1 (823) 544-3971","name":"Quiltigen","propertyId":"64933","state":"South Dakota","latitude":"-25.441925","longitude":-151.60221700000002}]},{"_id":"60100","address":"414 Martense Street, Villarreal, North Carolina, 1802","phone":"+1 (832) 596-2419","name":"Tetak","tennantId":"71448","state":"Wyoming","latitude":"-20.397649","longitude":"57.297697","buildings":[{"_id":"32978","address":"772 Perry Place, Marne, Pennsylvania, 7759","phone":"+1 (897) 497-2805","name":"Cytrek","propertyId":"60100","state":"New York","latitude":null,"longitude":"57.297697"},{"_id":"75678","address":"546 Ingraham Street, Beaulieu, Minnesota, 8539","phone":"+1 (920) 503-3084","name":"Crustatia","propertyId":"60100","state":"Louisiana","latitude":"-20.397649","longitude":null},{"_id":"93165","address":"275 Poplar Street, Wheaton, South Carolina, 1140","phone":"+1 (909) 455-3891","name":"Comtrail","propertyId":"60100","state":"Wisconsin","latitude":null,"longitude":"57.297697"},{"_id":"06918","address":"769 Tapscott Avenue, Deseret, Missouri, 286","phone":"+1 (905) 495-3095","name":"Boilicon","propertyId":"60100","state":"Kentucky","latitude":"-20.397649","longitude":57.297647},{"_id":"29781","address":"474 Desmond Court, Machias, New Hampshire, 2107","phone":"+1 (946) 413-2738","name":"Extremo","propertyId":"60100","state":"North Dakota","latitude":null,"longitude":"57.297697"},{"_id":"55108","address":"567 Orange Street, Evergreen, Iowa, 7838","phone":"+1 (990) 430-3142","name":"Filodyne","propertyId":"60100","state":"Georgia","latitude":"-20.397649","longitude":null},{"_id":"70223","address":"826 Noble Street, Brady, Virgin Islands, 4977","phone":"+1 (845) 557-3396","name":"Qnekt","propertyId":"60100","state":"Nebraska","latitude":null,"longitude":"57.297697"},{"_id":"47008","address":"659 Chestnut Street, Denio, Oregon, 7862","phone":"+1 (871) 459-3874","name":"Evidends","propertyId":"60100","state":"Oklahoma","latitude":"-20.397649","longitude":null},{"_id":"29703","address":"488 Louise Terrace, Fedora, Federated States Of Micronesia, 1358","phone":"+1 (882) 497-3836","name":"Omnigog","propertyId":"60100","state":"Arizona","latitude":"-20.397649","longitude":null}]},{"_id":"45747","address":"442 Bayview Avenue, Clinton, Indiana, 7198","phone":"+1 (905) 579-3598","name":"Zaj","tennantId":"71448","state":"Connecticut","latitude":"-14.533904","longitude":"140.595166","buildings":[{"_id":"64065","address":"353 Homecrest Avenue, Duryea, Florida, 3549","phone":"+1 (837) 408-3841","name":"Qot","propertyId":"45747","state":"Colorado","latitude":"-14.533904","longitude":140.595136},{"_id":"22496","address":"634 Howard Avenue, Oasis, Maryland, 2572","phone":"+1 (810) 494-2720","name":"Cinaster","propertyId":"45747","state":"Alabama","latitude":null,"longitude":"140.595166"},{"_id":"02895","address":"747 Meadow Street, Hampstead, Kansas, 8841","phone":"+1 (930) 597-2834","name":"Zboo","propertyId":"45747","state":"Arkansas","latitude":-14.533994,"longitude":"140.595166"},{"_id":"95864","address":"569 Coffey Street, Beyerville, Washington, 819","phone":"+1 (960) 499-2260","name":"Kinetica","propertyId":"45747","state":"New Jersey","latitude":null,"longitude":"140.595166"},{"_id":"62453","address":"415 Nassau Avenue, Richville, Mississippi, 6632","phone":"+1 (921) 502-2465","name":"Quailcom","propertyId":"45747","state":"California","latitude":"-14.533904","longitude":140.59511600000002},{"_id":"06346","address":"848 Campus Place, Weeksville, Rhode Island, 287","phone":"+1 (883) 478-2463","name":"Slumberia","propertyId":"45747","state":"West Virginia","latitude":null,"longitude":"140.595166"}]},{"_id":"79742","address":"210 Radde Place, Belvoir, American Samoa, 9400","phone":"+1 (894) 459-3189","name":"Cosmosis","tennantId":"71448","state":"Ohio","latitude":"-68.233908","longitude":"125.342635","buildings":[{"_id":"24379","address":"874 Belvidere Street, Jacksonwald, Virginia, 6578","phone":"+1 (949) 480-2289","name":"Lotron","propertyId":"79742","state":"Illinois","latitude":"-68.233908","longitude":null},{"_id":"04090","address":"607 Division Avenue, Madrid, Idaho, 913","phone":"+1 (904) 499-2340","name":"Comfirm","propertyId":"79742","state":"Texas","latitude":"-68.233908","longitude":null},{"_id":"67821","address":"601 Exeter Street, Whitmer, Palau, 9817","phone":"+1 (985) 426-2913","name":"Eschoir","propertyId":"79742","state":"Tennessee","latitude":-68.233988,"longitude":"125.342635"},{"_id":"92630","address":"423 Tampa Court, Chamberino, Marshall Islands, 1327","phone":"+1 (968) 597-3973","name":"Zoxy","propertyId":"79742","state":"Northern Mariana Islands","latitude":"-68.233908","longitude":null},{"_id":"94714","address":"531 Robert Street, Turpin, Hawaii, 487","phone":"+1 (807) 534-2507","name":"Zenthall","propertyId":"79742","state":"District Of Columbia","latitude":null,"longitude":"125.342635"},{"_id":"85636","address":"531 Danforth Street, Condon, Alaska, 5745","phone":"+1 (863) 436-3246","name":"Homelux","propertyId":"79742","state":"South Dakota","latitude":-68.234008,"longitude":"125.342635"}]},{"_id":"41012","address":"109 Polhemus Place, Ogema, Pennsylvania, 3798","phone":"+1 (896) 561-3357","name":"Phormula","tennantId":"71448","state":"New York","latitude":"-88.666057","longitude":"109.342628","buildings":[{"_id":"04496","address":"399 President Street, Courtland, Minnesota, 5330","phone":"+1 (911) 545-3408","name":"Cytrex","propertyId":"41012","state":"Louisiana","latitude":null,"longitude":"109.342628"},{"_id":"21743","address":"837 Cass Place, Carlton, South Carolina, 3273","phone":"+1 (857) 577-3247","name":"Prosure","propertyId":"41012","state":"Wisconsin","latitude":null,"longitude":"109.342628"},{"_id":"73319","address":"261 Anthony Street, Bloomington, Missouri, 8679","phone":"+1 (851) 420-2713","name":"Medalert","propertyId":"41012","state":"Kentucky","latitude":"-88.666057","longitude":null},{"_id":"62536","address":"377 King Street, Greenbackville, New Hampshire, 5643","phone":"+1 (872) 584-2179","name":"Acusage","propertyId":"41012","state":"North Dakota","latitude":"-88.666057","longitude":null},{"_id":"06880","address":"106 Montieth Street, Russellville, Iowa, 6653","phone":"+1 (915) 463-2620","name":"Zolar","propertyId":"41012","state":"Georgia","latitude":-88.66613699999999,"longitude":"109.342628"},{"_id":"59764","address":"649 Oakland Place, Downsville, Virgin Islands, 6690","phone":"+1 (911) 442-3725","name":"Eventix","propertyId":"41012","state":"Nebraska","latitude":"-88.666057","longitude":109.342578}]}]},{"_id":"54237","isActive":true,"logo":"images/7.jpg","picture":"https://placeholder.com/wp-content/uploads/2018/10/placeholder.com-logo3.jpg","name":"IMKAN","phone":"+1 (848) 492-3674","address":"559 Boardwalk , Lutsen, Minnesota, 9683","email":"imkan@imkan.io","properties":[{"_id":"14730","address":"849 Clark Street, Clay, Louisiana, 1487","phone":"+1 (904) 559-3378","name":"Comstruct","tennantId":"54237","state":"South Carolina","latitude":"26.377707","longitude":"-107.633095","buildings":[{"_id":"06228","address":"640 National Drive, Cutter, Wisconsin, 4856","phone":"+1 (967) 403-2096","name":"Cubix","propertyId":"14730","state":"Missouri","latitude":null,"longitude":"-107.633095"},{"_id":"04800","address":"357 Canda Avenue, Grimsley, Kentucky, 4916","phone":"+1 (804) 490-3358","name":"Housedown","propertyId":"14730","state":"New Hampshire","latitude":"26.377707","longitude":-107.633135},{"_id":"72577","address":"680 Midwood Street, Ryderwood, North Dakota, 8278","phone":"+1 (896) 521-2125","name":"Comvex","propertyId":"14730","state":"Iowa","latitude":26.377627,"longitude":"-107.633095"},{"_id":"42031","address":"127 Bergen Street, Convent, Georgia, 6153","phone":"+1 (884) 598-3792","name":"Acrodance","propertyId":"14730","state":"Virgin Islands","latitude":"26.377707","longitude":null},{"_id":"10708","address":"906 Everit Street, Grandview, Nebraska, 6164","phone":"+1 (850) 501-3112","name":"Hawkster","propertyId":"14730","state":"Oregon","latitude":null,"longitude":"-107.633095"},{"_id":"18531","address":"955 Batchelder Street, Salix, Oklahoma, 7726","phone":"+1 (914) 553-2875","name":"Zolarex","propertyId":"14730","state":"Federated States Of Micronesia","latitude":"26.377707","longitude":-107.633145},{"_id":"28660","address":"358 Waldane Court, Kiskimere, Arizona, 9331","phone":"+1 (843) 538-3857","name":"Exposa","propertyId":"14730","state":"Indiana","latitude":26.377607,"longitude":"-107.633095"},{"_id":"41364","address":"211 Trucklemans Lane, Wildwood, Connecticut, 426","phone":"+1 (998) 558-2591","name":"Mondicil","propertyId":"14730","state":"Florida","latitude":"26.377707","longitude":null},{"_id":"76083","address":"514 Wilson Street, Southmont, Colorado, 8896","phone":"+1 (817) 425-3747","name":"Veraq","propertyId":"14730","state":"Maryland","latitude":"26.377707","longitude":-107.633145}]},{"_id":"37167","address":"502 Evergreen Avenue, Gorst, Alabama, 5197","phone":"+1 (963) 561-2591","name":"Shopabout","tennantId":"54237","state":"Kansas","latitude":"75.72204","longitude":"-82.138477","buildings":[{"_id":"27073","address":"265 Sutton Street, Kraemer, Arkansas, 6949","phone":"+1 (810) 582-2703","name":"Grok","propertyId":"37167","state":"Washington","latitude":"75.72204","longitude":-82.138517},{"_id":"99486","address":"378 Kingsway Place, Glendale, New Jersey, 8611","phone":"+1 (843) 569-2796","name":"Cablam","propertyId":"37167","state":"Mississippi","latitude":75.72195,"longitude":"-82.138477"},{"_id":"15571","address":"254 Times Placez, Camptown, California, 5826","phone":"+1 (881) 498-3797","name":"Inquala","propertyId":"37167","state":"Rhode Island","latitude":75.72194,"longitude":"-82.138477"},{"_id":"76613","address":"815 Herbert Street, Bradenville, West Virginia, 7550","phone":"+1 (959) 423-2260","name":"Jetsilk","propertyId":"37167","state":"Montana","latitude":"75.72204","longitude":null},{"_id":"23277","address":"741 Pierrepont Place, Suitland, Guam, 7059","phone":"+1 (987) 415-3081","name":"Isologics","propertyId":"37167","state":"Maine","latitude":null,"longitude":"-82.138477"},{"_id":"23146","address":"144 Garden Place, Edneyville, Delaware, 4317","phone":"+1 (911) 581-2407","name":"Reversus","propertyId":"37167","state":"Vermont","latitude":"75.72204","longitude":null}]},{"_id":"34949","address":"813 Beverley Road, Lithium, Texas, 4010","phone":"+1 (939) 539-3287","name":"Zolarity","tennantId":"54237","state":"Palau","latitude":"24.200897","longitude":"170.907119","buildings":[{"_id":"23320","address":"541 Ide Court, Rockbridge, Tennessee, 3329","phone":"+1 (806) 545-3814","name":"Locazone","propertyId":"34949","state":"Marshall Islands","latitude":24.200817,"longitude":"170.907119"},{"_id":"92854","address":"969 Dooley Street, Valle, Northern Mariana Islands, 4575","phone":"+1 (875) 582-2510","name":"Comvey","propertyId":"34949","state":"Hawaii","latitude":null,"longitude":"170.907119"},{"_id":"41960","address":"470 Gerry Street, Sunbury, District Of Columbia, 2595","phone":"+1 (985) 551-2457","name":"Buzzworks","propertyId":"34949","state":"Alaska","latitude":"24.200897","longitude":170.90708899999998},{"_id":"99267","address":"608 Harman Street, Umapine, South Dakota, 7935","phone":"+1 (935) 475-3359","name":"Danja","propertyId":"34949","state":"Massachusetts","latitude":"24.200897","longitude":170.90707899999998},{"_id":"90163","address":"590 Joval Court, Beechmont, Utah, 2177","phone":"+1 (974) 424-2533","name":"Eventage","propertyId":"34949","state":"New Mexico","latitude":24.200807,"longitude":"170.907119"},{"_id":"44353","address":"605 Rugby Road, Dellview, Michigan, 8572","phone":"+1 (818) 439-2915","name":"Eternis","propertyId":"34949","state":"North Carolina","latitude":24.200817,"longitude":"170.907119"},{"_id":"44103","address":"643 Lafayette Walk, Oberlin, Wyoming, 7689","phone":"+1 (991) 453-2298","name":"Extrawear","propertyId":"34949","state":"Pennsylvania","latitude":"24.200897","longitude":null},{"_id":"41161","address":"185 Metrotech Courtr, Morgandale, New York, 6098","phone":"+1 (898) 442-3755","name":"Hydrocom","propertyId":"34949","state":"Minnesota","latitude":null,"longitude":"170.907119"}]},{"_id":"98661","address":"689 Logan Street, Toftrees, Wisconsin, 4737","phone":"+1 (826) 530-2671","name":"Centuria","tennantId":"54237","state":"Missouri","latitude":"-85.08491","longitude":"160.05936","buildings":[{"_id":"35653","address":"662 Benson Avenue, Strong, Kentucky, 532","phone":"+1 (946) 516-2861","name":"Skyplex","propertyId":"98661","state":"New Hampshire","latitude":-85.08498999999999,"longitude":"160.05936"},{"_id":"50311","address":"459 Preston Court, Interlochen, North Dakota, 9271","phone":"+1 (854) 536-2476","name":"Waterbaby","propertyId":"98661","state":"Iowa","latitude":"-85.08491","longitude":null},{"_id":"95420","address":"426 Billings Place, Jardine, Georgia, 8939","phone":"+1 (854) 420-2304","name":"Asimiline","propertyId":"98661","state":"Virgin Islands","latitude":-85.085,"longitude":"160.05936"},{"_id":"54073","address":"112 Clay Street, Bison, Nebraska, 7566","phone":"+1 (957) 433-3417","name":"Comstar","propertyId":"98661","state":"Oregon","latitude":"-85.08491","longitude":160.05933},{"_id":"56364","address":"327 Huntington Street, Innsbrook, Oklahoma, 9932","phone":"+1 (970) 404-3112","name":"Kaggle","propertyId":"98661","state":"Federated States Of Micronesia","latitude":"-85.08491","longitude":160.05931}]},{"_id":"83011","address":"524 Williams Place, Lawrence, Arkansas, 2302","phone":"+1 (883) 579-2724","name":"Biotica","tennantId":"54237","state":"Washington","latitude":"-88.434687","longitude":"-0.498406","buildings":[{"_id":"06020","address":"257 Clinton Avenue, Gratton, New Jersey, 5068","phone":"+1 (913) 560-3831","name":"Pholio","propertyId":"83011","state":"Mississippi","latitude":null,"longitude":"-0.498406"},{"_id":"68729","address":"422 Stockton Street, Smock, California, 2380","phone":"+1 (800) 557-2008","name":"Netur","propertyId":"83011","state":"Rhode Island","latitude":null,"longitude":"-0.498406"},{"_id":"22741","address":"499 Jamaica Avenue, Vale, West Virginia, 482","phone":"+1 (835) 585-3764","name":"Edecine","propertyId":"83011","state":"Montana","latitude":-88.434777,"longitude":"-0.498406"},{"_id":"79222","address":"864 Balfour Place, Dale, Guam, 4721","phone":"+1 (877) 484-3748","name":"Cedward","propertyId":"83011","state":"Maine","latitude":"-88.434687","longitude":-0.498456},{"_id":"58381","address":"280 Winthrop Street, Tyro, Delaware, 9063","phone":"+1 (830) 537-2695","name":"Portica","propertyId":"83011","state":"Vermont","latitude":-88.434787,"longitude":"-0.498406"}]},{"_id":"93332","address":"534 Jay Street, Bowden, Tennessee, 2689","phone":"+1 (917) 577-3007","name":"Accruex","tennantId":"54237","state":"Marshall Islands","latitude":"-69.231759","longitude":"53.926544","buildings":[{"_id":"70908","address":"657 Dorset Street, Sheatown, Northern Mariana Islands, 4814","phone":"+1 (844) 434-3835","name":"Zillactic","propertyId":"93332","state":"Hawaii","latitude":"-69.231759","longitude":null},{"_id":"83142","address":"364 Lincoln Avenue, Ivanhoe, District Of Columbia, 7991","phone":"+1 (919) 493-3738","name":"Zillidium","propertyId":"93332","state":"Alaska","latitude":"-69.231759","longitude":53.926504},{"_id":"57012","address":"447 Rutland Road, Baker, South Dakota, 5923","phone":"+1 (895) 559-2369","name":"Dogtown","propertyId":"93332","state":"Massachusetts","latitude":-69.231859,"longitude":"53.926544"},{"_id":"47318","address":"753 Turnbull Avenue, Jenkinsville, Utah, 4856","phone":"+1 (961) 448-2999","name":"Duflex","propertyId":"93332","state":"New Mexico","latitude":"-69.231759","longitude":null},{"_id":"38894","address":"183 Hunts Lane, Chapin, Michigan, 3033","phone":"+1 (870) 422-3104","name":"Accufarm","propertyId":"93332","state":"North Carolina","latitude":-69.231849,"longitude":"53.926544"},{"_id":"84235","address":"289 Veterans Avenue, Iola, Wyoming, 5594","phone":"+1 (993) 480-2250","name":"Netility","propertyId":"93332","state":"Pennsylvania","latitude":-69.231859,"longitude":"53.926544"}]}]},{"_id":"15003","isActive":false,"logo":"images/8.jpg","picture":"https://placeholder.com/wp-content/uploads/2018/10/placeholder.com-logo3.jpg","name":"TECHTRIX","phone":"+1 (846) 593-3735","address":"619 Grand Street, Kirk, North Dakota, 1896","email":"techtrix@techtrix.biz","properties":[{"_id":"45723","address":"386 Noel Avenue, Glasgow, Iowa, 3514","phone":"+1 (813) 435-3813","name":"Injoy","tennantId":"15003","state":"Georgia","latitude":"-12.168632","longitude":"4.93402","buildings":[{"_id":"07116","address":"450 Monaco Place, Websterville, Virgin Islands, 7781","phone":"+1 (883) 454-3233","name":"Newcube","propertyId":"45723","state":"Nebraska","latitude":"-12.168632","longitude":null},{"_id":"29430","address":"971 Powell Street, Sims, Oregon, 4901","phone":"+1 (896) 554-3918","name":"Enersol","propertyId":"45723","state":"Oklahoma","latitude":"-12.168632","longitude":4.93397},{"_id":"71983","address":"157 Hornell Loop, Kersey, Federated States Of Micronesia, 4911","phone":"+1 (931) 452-3312","name":"Paprikut","propertyId":"45723","state":"Arizona","latitude":-12.168732,"longitude":"4.93402"},{"_id":"61047","address":"301 Claver Place, Templeton, Indiana, 9677","phone":"+1 (939) 585-3642","name":"Intergeek","propertyId":"45723","state":"Connecticut","latitude":"-12.168632","longitude":4.93398},{"_id":"42478","address":"963 Henry Street, Lorraine, Florida, 1329","phone":"+1 (968) 448-2411","name":"Ovation","propertyId":"45723","state":"Colorado","latitude":"-12.168632","longitude":null},{"_id":"25302","address":"227 Canal Avenue, Edgar, Maryland, 5432","phone":"+1 (984) 532-3479","name":"Harmoney","propertyId":"45723","state":"Alabama","latitude":"-12.168632","longitude":4.93397},{"_id":"91904","address":"248 McKibbin Street, Chelsea, Kansas, 1823","phone":"+1 (990) 422-3221","name":"Zilladyne","propertyId":"45723","state":"Arkansas","latitude":"-12.168632","longitude":null}]},{"_id":"67426","address":"969 Adelphi Street, Bartley, Rhode Island, 8744","phone":"+1 (978) 408-3474","name":"Typhonica","tennantId":"15003","state":"West Virginia","latitude":"-37.817545","longitude":"-53.926588","buildings":[{"_id":"33550","address":"400 Village Court, Bladensburg, Montana, 4813","phone":"+1 (999) 521-3636","name":"Strezzo","propertyId":"67426","state":"Guam","latitude":-37.817635,"longitude":"-53.926588"},{"_id":"81594","address":"880 Kosciusko Street, Darlington, Maine, 558","phone":"+1 (841) 599-3772","name":"Applideck","propertyId":"67426","state":"Delaware","latitude":"-37.817545","longitude":-53.926618000000005},{"_id":"44378","address":"674 Newkirk Avenue, Tilleda, Vermont, 2787","phone":"+1 (985) 471-2462","name":"Flumbo","propertyId":"67426","state":"Puerto Rico","latitude":-37.817645000000006,"longitude":"-53.926588"},{"_id":"20244","address":"641 Kiely Place, Rockhill, American Samoa, 5857","phone":"+1 (985) 403-3846","name":"Sustenza","propertyId":"67426","state":"Ohio","latitude":-37.817635,"longitude":"-53.926588"},{"_id":"61362","address":"799 Harrison Avenue, Enlow, Virginia, 7448","phone":"+1 (870) 420-2398","name":"Recrisys","propertyId":"67426","state":"Illinois","latitude":"-37.817545","longitude":null}]},{"_id":"34518","address":"849 Portland Avenue, Nescatunga, Alaska, 6967","phone":"+1 (865) 580-2993","name":"Lyria","tennantId":"15003","state":"South Dakota","latitude":"-21.53241","longitude":"15.651852","buildings":[{"_id":"22358","address":"221 Taylor Street, Dexter, Massachusetts, 4349","phone":"+1 (856) 415-2500","name":"Miracula","propertyId":"34518","state":"Utah","latitude":"-21.53241","longitude":15.651802},{"_id":"39027","address":"150 Myrtle Avenue, Chumuckla, New Mexico, 4356","phone":"+1 (944) 523-3834","name":"Xeronk","propertyId":"34518","state":"Michigan","latitude":-21.53249,"longitude":"15.651852"},{"_id":"50842","address":"508 Newel Street, Avoca, North Carolina, 3369","phone":"+1 (922) 540-2938","name":"Translink","propertyId":"34518","state":"Wyoming","latitude":"-21.53241","longitude":null},{"_id":"00000","address":"254 Narrows Avenue, Juntura, Pennsylvania, 9915","phone":"+1 (805) 548-2216","name":"Imperium","propertyId":"34518","state":"New York","latitude":null,"longitude":"15.651852"},{"_id":"68664","address":"947 Plaza Street, Coalmont, Minnesota, 2560","phone":"+1 (812) 433-2380","name":"Affluex","propertyId":"34518","state":"Louisiana","latitude":-21.53249,"longitude":"15.651852"},{"_id":"13282","address":"376 Montgomery Street, Heil, South Carolina, 5813","phone":"+1 (993) 554-3550","name":"Yurture","propertyId":"34518","state":"Wisconsin","latitude":null,"longitude":"15.651852"},{"_id":"73584","address":"363 Colonial Road, Connerton, Missouri, 4529","phone":"+1 (812) 450-3647","name":"Inear","propertyId":"34518","state":"Kentucky","latitude":"-21.53241","longitude":15.651802}]},{"_id":"37393","address":"353 Albemarle Terrace, Dennard, Virgin Islands, 8824","phone":"+1 (898) 548-3224","name":"Unisure","tennantId":"15003","state":"Nebraska","latitude":"-62.80663","longitude":"-63.130575","buildings":[{"_id":"89974","address":"830 Fountain Avenue, Shaft, Oregon, 6058","phone":"+1 (972) 470-2545","name":"Steelfab","propertyId":"37393","state":"Oklahoma","latitude":"-62.80663","longitude":null},{"_id":"81888","address":"423 Argyle Road, Gracey, Federated States Of Micronesia, 9346","phone":"+1 (886) 592-3914","name":"Radiantix","propertyId":"37393","state":"Arizona","latitude":null,"longitude":"-63.130575"},{"_id":"83467","address":"124 Bouck Court, Cumberland, Indiana, 7596","phone":"+1 (998) 476-3798","name":"Telpod","propertyId":"37393","state":"Connecticut","latitude":"-62.80663","longitude":-63.130615},{"_id":"47015","address":"358 Glendale Court, Alfarata, Florida, 5386","phone":"+1 (976) 544-3813","name":"Letpro","propertyId":"37393","state":"Colorado","latitude":-62.80673,"longitude":"-63.130575"},{"_id":"53595","address":"791 Vine Street, Rowe, Maryland, 6045","phone":"+1 (853) 588-2174","name":"Xixan","propertyId":"37393","state":"Alabama","latitude":null,"longitude":"-63.130575"},{"_id":"80322","address":"692 Stuyvesant Avenue, Berwind, Kansas, 2203","phone":"+1 (822) 471-3953","name":"Eclipto","propertyId":"37393","state":"Arkansas","latitude":"-62.80663","longitude":null},{"_id":"27231","address":"671 Calyer Street, Deputy, Washington, 9192","phone":"+1 (953) 599-3608","name":"Koffee","propertyId":"37393","state":"New Jersey","latitude":null,"longitude":"-63.130575"}]},{"_id":"27124","address":"337 Liberty Avenue, Bowie, Montana, 3172","phone":"+1 (943) 547-3891","name":"Songlines","tennantId":"15003","state":"Guam","latitude":"-62.058593","longitude":"40.355294","buildings":[{"_id":"98760","address":"862 Bevy Court, Fairview, Maine, 2271","phone":"+1 (923) 479-3132","name":"Zomboid","propertyId":"27124","state":"Delaware","latitude":"-62.058593","longitude":40.355254},{"_id":"56326","address":"910 Livingston Street, Homeland, Vermont, 2681","phone":"+1 (888) 566-3837","name":"Tsunamia","propertyId":"27124","state":"Puerto Rico","latitude":null,"longitude":"40.355294"},{"_id":"85161","address":"873 Lynch Street, Hollins, American Samoa, 6796","phone":"+1 (902) 539-3018","name":"Dogspa","propertyId":"27124","state":"Ohio","latitude":-62.058693000000005,"longitude":"40.355294"},{"_id":"08568","address":"914 Cobek Court, Genoa, Virginia, 3703","phone":"+1 (852) 442-3957","name":"Idego","propertyId":"27124","state":"Illinois","latitude":null,"longitude":"40.355294"},{"_id":"06059","address":"225 Concord Street, Bourg, Idaho, 6498","phone":"+1 (883) 418-3037","name":"Plexia","propertyId":"27124","state":"Texas","latitude":"-62.058593","longitude":40.355254},{"_id":"98594","address":"533 Ellery Street, Irwin, Palau, 7100","phone":"+1 (850) 568-3981","name":"Viagrand","propertyId":"27124","state":"Tennessee","latitude":"-62.058593","longitude":40.355244},{"_id":"77654","address":"562 Lee Avenue, Clara, Marshall Islands, 2154","phone":"+1 (859) 434-2607","name":"Enthaze","propertyId":"27124","state":"Northern Mariana Islands","latitude":"-62.058593","longitude":40.355264},{"_id":"93924","address":"659 Highland Place, Babb, Hawaii, 7875","phone":"+1 (887) 421-2121","name":"Martgo","propertyId":"27124","state":"District Of Columbia","latitude":null,"longitude":"40.355294"}]},{"_id":"75526","address":"564 Evans Street, Gambrills, Massachusetts, 7024","phone":"+1 (923) 590-2803","name":"Quintity","tennantId":"15003","state":"Utah","latitude":"-79.305039","longitude":"174.311683","buildings":[{"_id":"67396","address":"638 Clifton Place, Eastmont, New Mexico, 8558","phone":"+1 (829) 594-2692","name":"Fibrodyne","propertyId":"75526","state":"Michigan","latitude":null,"longitude":"174.311683"},{"_id":"10242","address":"129 Vanderveer Street, Allentown, North Carolina, 1338","phone":"+1 (924) 536-3844","name":"Pearlesex","propertyId":"75526","state":"Wyoming","latitude":"-79.305039","longitude":null},{"_id":"11022","address":"828 Summit Street, Roeville, Pennsylvania, 7730","phone":"+1 (818) 405-3427","name":"Memora","propertyId":"75526","state":"New York","latitude":-79.305139,"longitude":"174.311683"},{"_id":"37459","address":"536 Doughty Street, Bancroft, Minnesota, 1958","phone":"+1 (855) 408-2889","name":"Ecolight","propertyId":"75526","state":"Louisiana","latitude":"-79.305039","longitude":174.31164299999998},{"_id":"98887","address":"586 Fenimore Street, Nicholson, South Carolina, 1268","phone":"+1 (833) 424-3813","name":"Solgan","propertyId":"75526","state":"Wisconsin","latitude":null,"longitude":"174.311683"}]},{"_id":"80091","address":"868 Bridge Street, Bennett, Oregon, 8576","phone":"+1 (961) 484-3692","name":"Soprano","tennantId":"15003","state":"Oklahoma","latitude":"-33.962638","longitude":"-56.371656","buildings":[{"_id":"64858","address":"666 Harrison Place, Chicopee, Federated States Of Micronesia, 2967","phone":"+1 (989) 600-2677","name":"Exozent","propertyId":"80091","state":"Arizona","latitude":"-33.962638","longitude":null},{"_id":"36052","address":"800 Front Street, Hickory, Indiana, 1112","phone":"+1 (865) 548-2265","name":"Turnling","propertyId":"80091","state":"Connecticut","latitude":null,"longitude":"-56.371656"},{"_id":"42250","address":"195 Flatbush Avenue, Magnolia, Florida, 9080","phone":"+1 (869) 517-3513","name":"Gology","propertyId":"80091","state":"Colorado","latitude":"-33.962638","longitude":-56.371706},{"_id":"06316","address":"585 Railroad Avenue, Munjor, Maryland, 4076","phone":"+1 (844) 561-2329","name":"Apextri","propertyId":"80091","state":"Alabama","latitude":null,"longitude":"-56.371656"},{"_id":"04431","address":"904 Hope Street, Hackneyville, Kansas, 7007","phone":"+1 (825) 598-3437","name":"Protodyne","propertyId":"80091","state":"Arkansas","latitude":"-33.962638","longitude":-56.371696}]}]},{"_id":"82392","isActive":true,"logo":"images/9.jpg","picture":"https://placeholder.com/wp-content/uploads/2018/10/placeholder.com-logo3.jpg","name":"PYRAMIA","phone":"+1 (839) 474-3487","address":"689 Applegate Court, Ironton, Federated States Of Micronesia, 3426","email":"pyramia@pyramia.us","properties":[{"_id":"34434","address":"937 Louisiana Avenue, Matthews, Arizona, 2874","phone":"+1 (898) 535-3864","name":"Glukgluk","tennantId":"82392","state":"Indiana","latitude":"81.433168","longitude":"141.001286","buildings":[{"_id":"00820","address":"688 Union Avenue, Welda, Connecticut, 5880","phone":"+1 (823) 475-3108","name":"Netagy","propertyId":"34434","state":"Florida","latitude":"81.433168","longitude":141.00125599999998},{"_id":"12386","address":"863 Brighton Avenue, Cherokee, Colorado, 3755","phone":"+1 (959) 435-2693","name":"Diginetic","propertyId":"34434","state":"Maryland","latitude":null,"longitude":"141.001286"},{"_id":"20843","address":"711 Forrest Street, Coultervillle, Alabama, 1618","phone":"+1 (872) 415-3780","name":"Elita","propertyId":"34434","state":"Kansas","latitude":null,"longitude":"141.001286"},{"_id":"50389","address":"394 Ford Street, Williams, Arkansas, 1004","phone":"+1 (890) 479-3419","name":"Zytrax","propertyId":"34434","state":"Washington","latitude":null,"longitude":"141.001286"},{"_id":"17059","address":"756 Ludlam Place, Jennings, New Jersey, 5595","phone":"+1 (858) 515-3813","name":"Realysis","propertyId":"34434","state":"Mississippi","latitude":"81.433168","longitude":141.001236},{"_id":"81676","address":"374 Mersereau Court, Somerset, California, 6420","phone":"+1 (895) 455-2381","name":"Nikuda","propertyId":"34434","state":"Rhode Island","latitude":"81.433168","longitude":141.00124599999998},{"_id":"73081","address":"668 Fleet Place, Hanover, West Virginia, 6708","phone":"+1 (985) 437-2535","name":"Zyple","propertyId":"34434","state":"Montana","latitude":81.43306799999999,"longitude":"141.001286"}]},{"_id":"31263","address":"687 Berriman Street, Staples, Puerto Rico, 6859","phone":"+1 (989) 424-2468","name":"Sealoud","tennantId":"82392","state":"American Samoa","latitude":"54.680191","longitude":"-175.413846","buildings":[{"_id":"97625","address":"998 Ferris Street, Barrelville, Ohio, 1087","phone":"+1 (948) 442-3742","name":"Enersave","propertyId":"31263","state":"Virginia","latitude":54.680111000000004,"longitude":"-175.413846"},{"_id":"39580","address":"144 Story Court, Rivers, Illinois, 6201","phone":"+1 (989) 569-2278","name":"Ozean","propertyId":"31263","state":"Idaho","latitude":null,"longitude":"-175.413846"},{"_id":"57444","address":"793 Tompkins Avenue, Elwood, Texas, 2535","phone":"+1 (963) 556-3208","name":"Twiist","propertyId":"31263","state":"Palau","latitude":"54.680191","longitude":-175.41388600000002},{"_id":"42255","address":"925 Brown Street, Marion, Tennessee, 7585","phone":"+1 (803) 457-2259","name":"Terrago","propertyId":"31263","state":"Marshall Islands","latitude":"54.680191","longitude":null},{"_id":"07889","address":"805 Gatling Place, Siglerville, Northern Mariana Islands, 5579","phone":"+1 (949) 572-2354","name":"Assurity","propertyId":"31263","state":"Hawaii","latitude":"54.680191","longitude":null},{"_id":"73309","address":"851 Wolcott Street, Bowmansville, District Of Columbia, 6380","phone":"+1 (833) 476-2970","name":"Acruex","propertyId":"31263","state":"Alaska","latitude":"54.680191","longitude":null},{"_id":"77766","address":"874 Vanderveer Place, Temperanceville, South Dakota, 3957","phone":"+1 (854) 559-3856","name":"Quility","propertyId":"31263","state":"Massachusetts","latitude":54.680101,"longitude":"-175.413846"}]},{"_id":"26523","address":"626 Brightwater Avenue, Waverly, Wyoming, 5556","phone":"+1 (891) 590-3351","name":"Geekular","tennantId":"82392","state":"Pennsylvania","latitude":"-79.300317","longitude":"-166.187075","buildings":[{"_id":"74292","address":"273 Sumpter Street, Sabillasville, New York, 7558","phone":"+1 (900) 520-3053","name":"Bullzone","propertyId":"26523","state":"Minnesota","latitude":null,"longitude":"-166.187075"},{"_id":"36524","address":"398 Alton Place, Sexton, Louisiana, 7218","phone":"+1 (938) 563-2792","name":"Unq","propertyId":"26523","state":"South Carolina","latitude":-79.300407,"longitude":"-166.187075"},{"_id":"56963","address":"807 Lewis Place, Roulette, Wisconsin, 2165","phone":"+1 (838) 501-3287","name":"Viocular","propertyId":"26523","state":"Missouri","latitude":null,"longitude":"-166.187075"},{"_id":"93526","address":"456 Empire Boulevard, Woodburn, Kentucky, 9372","phone":"+1 (853) 447-2842","name":"Uni","propertyId":"26523","state":"New Hampshire","latitude":null,"longitude":"-166.187075"},{"_id":"63348","address":"190 Wogan Terrace, Comptche, North Dakota, 2475","phone":"+1 (978) 449-2255","name":"Entroflex","propertyId":"26523","state":"Iowa","latitude":"-79.300317","longitude":null},{"_id":"93924","address":"950 School Lane, Abiquiu, Georgia, 6784","phone":"+1 (960) 403-2863","name":"Squish","propertyId":"26523","state":"Virgin Islands","latitude":"-79.300317","longitude":-166.187115},{"_id":"69695","address":"536 Middagh Street, Frizzleburg, Nebraska, 8039","phone":"+1 (941) 434-2419","name":"Gushkool","propertyId":"26523","state":"Oregon","latitude":"-79.300317","longitude":null}]},{"_id":"76216","address":"146 Ross Street, Lewis, Connecticut, 7474","phone":"+1 (913) 424-2699","name":"Maxemia","tennantId":"82392","state":"Florida","latitude":"30.811764","longitude":"114.795921","buildings":[{"_id":"78530","address":"654 Cypress Avenue, Outlook, Colorado, 2852","phone":"+1 (883) 577-3834","name":"Comtrak","propertyId":"76216","state":"Maryland","latitude":30.811674,"longitude":"114.795921"},{"_id":"91707","address":"978 Arkansas Drive, Wollochet, Alabama, 5327","phone":"+1 (868) 546-2038","name":"Kog","propertyId":"76216","state":"Kansas","latitude":null,"longitude":"114.795921"},{"_id":"83243","address":"901 Devon Avenue, Jugtown, Arkansas, 7409","phone":"+1 (982) 403-3725","name":"Ezent","propertyId":"76216","state":"Washington","latitude":30.811684,"longitude":"114.795921"},{"_id":"03836","address":"820 Hopkins Street, Cornucopia, New Jersey, 1707","phone":"+1 (915) 513-3649","name":"Prowaste","propertyId":"76216","state":"Mississippi","latitude":null,"longitude":"114.795921"},{"_id":"12015","address":"808 Osborn Street, Fairacres, California, 7868","phone":"+1 (879) 570-2657","name":"Zanilla","propertyId":"76216","state":"Rhode Island","latitude":"30.811764","longitude":114.795871}]},{"_id":"53478","address":"152 Joralemon Street, Hardyville, Ohio, 8861","phone":"+1 (977) 520-3289","name":"Centree","tennantId":"82392","state":"Virginia","latitude":"-73.685459","longitude":"-7.51797","buildings":[{"_id":"79383","address":"557 Beaumont Street, Rehrersburg, Illinois, 6696","phone":"+1 (935) 414-2942","name":"Supremia","propertyId":"53478","state":"Idaho","latitude":"-73.685459","longitude":-7.51801},{"_id":"79234","address":"857 Pioneer Street, Tivoli, Texas, 2624","phone":"+1 (941) 594-2980","name":"Combogene","propertyId":"53478","state":"Palau","latitude":"-73.685459","longitude":-7.51802},{"_id":"92761","address":"813 Wakeman Place, Loma, Tennessee, 353","phone":"+1 (875) 585-2757","name":"Matrixity","propertyId":"53478","state":"Marshall Islands","latitude":"-73.685459","longitude":-7.51801},{"_id":"20435","address":"967 Harden Street, Sattley, Northern Mariana Islands, 5205","phone":"+1 (866) 547-2389","name":"Plasmosis","propertyId":"53478","state":"Hawaii","latitude":"-73.685459","longitude":-7.51801},{"_id":"91439","address":"261 Schweikerts Walk, Cartwright, District Of Columbia, 4251","phone":"+1 (826) 583-3973","name":"Buzzness","propertyId":"53478","state":"Alaska","latitude":-73.685549,"longitude":"-7.51797"},{"_id":"00723","address":"183 Sharon Street, Haena, South Dakota, 4700","phone":"+1 (977) 476-2904","name":"Rugstars","propertyId":"53478","state":"Massachusetts","latitude":-73.685549,"longitude":"-7.51797"}]},{"_id":"17442","address":"637 Varanda Place, Madaket, New York, 8341","phone":"+1 (817) 527-2081","name":"Remotion","tennantId":"82392","state":"Minnesota","latitude":"-52.518105","longitude":"-130.250333","buildings":[{"_id":"50318","address":"903 Bokee Court, Bath, Louisiana, 4944","phone":"+1 (993) 537-3426","name":"Boink","propertyId":"17442","state":"South Carolina","latitude":null,"longitude":"-130.250333"},{"_id":"14119","address":"355 Varick Street, Bluetown, Wisconsin, 2969","phone":"+1 (995) 412-2011","name":"Unia","propertyId":"17442","state":"Missouri","latitude":null,"longitude":"-130.250333"},{"_id":"33225","address":"885 Bush Street, Greenfields, Kentucky, 6113","phone":"+1 (810) 553-3189","name":"Exoswitch","propertyId":"17442","state":"New Hampshire","latitude":-52.518205,"longitude":"-130.250333"},{"_id":"17255","address":"339 Mill Lane, Itmann, North Dakota, 8556","phone":"+1 (945) 442-2572","name":"Fanfare","propertyId":"17442","state":"Iowa","latitude":"-52.518105","longitude":-130.250383},{"_id":"40500","address":"263 Independence Avenue, Moquino, Georgia, 1413","phone":"+1 (855) 515-2528","name":"Concility","propertyId":"17442","state":"Virgin Islands","latitude":"-52.518105","longitude":null},{"_id":"22415","address":"953 Eaton Court, Chesterfield, Nebraska, 1216","phone":"+1 (806) 536-3392","name":"Terascape","propertyId":"17442","state":"Oregon","latitude":null,"longitude":"-130.250333"}]}]}]